,Address,Postcode,Size in m²,Rooms,Prize in €,Price/Sqm,Latitude,Longitude
0,Brouwersgracht 248 F                       , 1013 HE ,62.0,2,2500.0,40.32258064516129,52.382417,4.885611
1,Krijn Breurstraat 7                       , 1064 SX ,94.0,3,3000.0,31.914893617021278,52.378049,4.823713
2,Cliffordstraat                       , 1051 GS ,50.0,2,2000.0,40.0,52.383771,4.871866000000002
3,Baarsjesweg                       , 1058 AG ,60.0,3,4000.0,66.66666666666667,52.367455,4.862214
4,Jan Olphert Vaillantlaan                       , 1086 ZA ,150.0,4,2500.0,16.666666666666668,52.362457,4.979589
5,Koningin Wilhelminaplein                       , 1062 HJ ,62.0,2,2150.0,34.67741935483871,52.356321,4.838934
6,Jan van Zutphenstraat 779                       , 1069 RS ,98.0,2,3500.0,35.714285714285715,52.349665,4.797743
7,James Wattstraat                       , 1097 DL ,62.0,2,3500.0,56.45161290322582,52.35008,4.922676
8,Dintelstraat                       , 1078 VX ,80.0,3,3950.0,49.375,52.341869,4.89344
9,Van Eeghenstraat                       , 1071 GE ,130.0,5,4700.0,36.153846153846146,52.356458,4.869726
10,Arent Janszoon Ernststraat                       , 1082 LD ,30.0,1,2500.0,83.33333333333333,52.332122,4.888758
11,Mauvestraat 47 I                       , 1073 RH ,60.0,3,2500.0,41.66666666666666,52.349873,4.903033
12,Lauriergracht                       , 1016 RK ,90.0,5,5000.0,55.55555555555557,52.371294,4.879935
13,Kuipersstraat                       , 1073 ER ,40.0,1,2150.0,53.75,52.353543,4.902691
14,De Wittenkade 97 A                       , 1052 AG ,61.0,3,3050.0,50.0,52.38313,4.877624
15,Millingenhof 233                       , 1106 KP ,125.0,4,2000.0,16.0,52.295758,4.969133
16,Eerste Helmersstraat                       , 1054 DS ,58.0,3,3500.0,60.3448275862069,52.363891,4.876734
17,Rooseveltlaan 167 III                       , 1079 AM ,118.0,4,5000.0,42.3728813559322,52.343066,4.897824
18,Geelvinckssteeg 6 3                       , 1017 BE ,85.0,3,2500.0,29.411764705882355,52.366516,4.891502
19,Frederiksstraat                       , 1054 LB ,45.0,2,3000.0,66.66666666666667,52.358039,4.859196
20,Korte Keizersstraat                       , 1011 GH ,33.0,2,2350.0,71.21212121212122,52.371387,4.9025300000000005
21,Wilhelminastraat                       , 1054 WH ,75.0,3,2000.0,26.66666666666667,52.361416,4.862565
22,Kleine Houtstraat                       , 1013 HN ,94.0,3,3500.0,37.23404255319149,52.384635,4.884627
23,Lambertus Zijlplein 35                       , 1067 JR ,84.0,3,2000.0,23.809523809523807,52.378507,4.801399
24,Stadionweg                       , 1077 SR ,80.0,3,2500.0,31.25,52.345615,4.859659
25,Prinsengracht                       , 1016 HJ ,35.0,1,1700.0,48.57142857142857,52.362122,4.898975
26,Wilhelminastraat 28 2                       , 1054 WJ ,52.0,2,2500.0,48.07692307692307,52.362398,4.86615
27,Keizersgracht 735 II                       , 1017 DZ ,83.0,2,3500.0,42.16867469879518,52.364293,4.899411
28,Kromme-Mijdrechtstraat                       , 1079 KR ,60.0,2,3500.0,58.33333333333334,52.347187,4.908138
29,Legmeerplein                       , 1058 NL ,65.0,3,3000.0,46.153846153846146,52.35308300000001,4.851792
30,Andersensingel                       , 1102 VS ,55.0,2,2300.0,41.81818181818182,52.321532,4.943245
31,Czaar Peterstraat 149 3                       , 1018 PH ,60.0,4,2000.0,33.333333333333336,52.370888,4.930453
32,Bolestein 546 A                       , 1081 EJ ,88.0,3,2800.0,31.818181818181817,52.324934000000006,4.859314
33,Backershagen                       , 1082 GR ,130.0,4,5000.0,38.46153846153846,52.324708,4.875113
34,Van Nijenrodeweg                       , 1083 EK ,90.0,4,3000.0,33.333333333333336,52.327337,4.858141000000002
35,Visseringstraat                       , 1051 KG ,86.0,3,4450.0,51.74418604651163,52.3775,4.869694
36,Keizersgracht                       , 1015 CW ,70.0,2,3500.0,50.0,52.364336,4.892515
37,Dirk Bonsstraat                       , 1063 TX ,48.0,2,1250.0,26.04166666666667,52.378412,4.8351419999999985
38,Kortenaerstraat 19 1                       , 1057 JL ,68.0,2,4000.0,58.82352941176471,52.369105,4.862561
39,Djambistraat 27 3                       , 1094 AX ,47.0,2,2150.0,45.744680851063826,52.36485,4.938164
40,Rijnstraat                       , 1078 RB ,75.0,3,4050.0,54.0,52.348776,4.9042010000000005
41,Van Spilbergenstraat 35 2                       , 1057 PX ,55.0,3,2300.0,41.81818181818182,52.365499,4.852004
42,Oosterpark 35 B                       , 1092 AL ,76.0,3,3650.0,48.026315789473685,52.358485,4.919766
43,Lou Jansenplein                       , 1063 GV ,59.0,3,2000.0,33.898305084745765,52.383919,4.819766
44,Van Eeghenstraat                       , 1071 EZ ,184.0,5,5950.0,32.33695652173913,52.356458,4.869726
45,Omval 115                       , 1096 AA ,110.0,4,4450.0,40.45454545454545,52.345106,4.915529
46,Beethovenstraat 215                       , 1077 JE ,116.0,3,3150.0,27.15517241379311,52.342081,4.877511
47,Voordek                       , 1034 SR ,76.0,4,2300.0,30.26315789473684,52.410984,4.917338
48,Joos Banckersplantsoen                       , 1056 LD ,97.0,3,3500.0,36.082474226804116,52.37636,4.8565580000000015
49,Sanderijnstraat 37 2                       , 1055 BP ,55.0,3,2150.0,39.09090909090909,52.377517,4.850375
50,Madurastraat 55 2                       , 1094 GG ,68.0,3,2800.0,41.1764705882353,52.364394,4.93397
51,Bloemgracht                       , 1016 KH ,240.0,4,8000.0,33.333333333333336,52.374193,4.876384
52,Rinus Michelslaan                       , 1061 MB ,75.0,3,3500.0,46.66666666666666,52.373158,4.838783
53,Madurastraat 22 B                       , 1094 GM ,30.0,2,2500.0,83.33333333333333,52.364101,4.932519
54,Brouwersgracht 248 K                       , 1013 HE ,60.0,2,2150.0,35.833333333333336,52.382417,4.885611
55,Ceintuurbaan                       , 1074 EB ,60.0,2,2800.0,46.66666666666666,52.354812,4.9010370000000005
56,Ceintuurbaan                       , 1072 GB ,60.0,2,2300.0,38.333333333333336,52.354812,4.9010370000000005
57,Lodewijk Boisotstraat                       , 1057 ZN ,60.0,3,3000.0,50.0,52.369219,4.858385
58,Marnixkade                       , 1015 ZJ ,38.0,1,2500.0,65.78947368421052,52.383,4.88131
59,Eerste Constantijn Huygensstraat                       , 1054 BS ,50.0,3,4000.0,80.0,52.362854,4.8753
60,Welnastraat                       , 1096 GJ ,28.0,1,3000.0,107.14285714285714,52.339568,4.919455
61,Warmoesstraat 50 R                       , 1012 JE ,70.0,3,3650.0,52.14285714285714,52.375513,4.898103
62,Eerste Jan Steenstraat 126 2                       , 1072 NT ,70.0,3,3000.0,42.857142857142854,52.354289,4.892857
63,Albert Cuypstraat 209 1                       , 1073 BE ,45.0,2,1300.0,28.88888888888889,52.356234,4.895976
64,Westerstraat                       , 1015 LX ,50.0,2,2000.0,40.0,52.377634,4.879553
65,Blaeustraat                       , 1012 ZK ,25.0,1,1500.0,60.0,52.374377,4.892204
66,Herengracht 437 C                       , 1017 BR ,70.0,3,3500.0,50.0,52.365048,4.898317
67,Balthasar Floriszstraat 55 B                       , 1071 VB ,53.0,3,3000.0,56.60377358490565,52.353397,4.885807
68,Kinderdijkstraat 68 3                       , 1079 GM ,86.0,5,3050.0,35.46511627906977,52.342107,4.9027949999999985
69,Duke Ellingtonstraat 92                       , 1066 GG ,83.0,3,2800.0,33.734939759036145,52.343785,4.826893
70,Kinkerstraat                       , 1053 EC ,53.0,4,4500.0,84.90566037735849,52.367586,4.873204
71,Nieuwe Spiegelstraat 67 2                       , 1017 DD ,90.0,3,4500.0,50.0,52.36287100000001,4.8883269999999985
72,Grubbehoeve 528                       , 1103 GZ ,70.0,3,2500.0,35.714285714285715,52.321782,4.977894
73,Michelangelostraat                       , 1077 BZ ,85.0,4,3050.0,35.882352941176464,52.345487,4.871384
74,Sarphatipark 114 3                       , 1073 ED ,83.0,3,3650.0,43.975903614457856,52.353744,4.897897
75,Krommeniestraat                       , 1013 XH ,69.0,2,2500.0,36.231884057971016,52.391243,4.875186
76,Krommeniestraat                       , 1013 XH ,89.0,3,5000.0,56.179775280898866,52.391243,4.875186
77,Krommeniestraat                       , 1013 XH ,36.0,1,2500.0,69.44444444444444,52.391243,4.875186
78,Krommeniestraat                       , 1013 XH ,65.0,3,3000.0,46.153846153846146,52.391243,4.875186
79,Krommeniestraat                       , 1013 XH ,86.0,3,4500.0,52.32558139534883,52.391243,4.875186
80,Brouwersgracht 248 B                       , 1013 HE ,62.0,2,2800.0,45.161290322580655,52.382417,4.885611
81,Krommeniestraat                       , 1013 XH ,51.0,2,2500.0,49.01960784313725,52.391243,4.875186
82,Pietersbergweg 231                       , 1105 BM ,32.0,2,1850.0,57.8125,52.298977,4.9559940000000005
83,Singel                       , 1012 VG ,69.0,2,4450.0,64.4927536231884,52.375858,4.891292
84,Scherpenzeelstraat 75                       , 1107 HS ,80.0,4,2500.0,31.25,52.293867,4.978268
85,Singel 115                       , 1012 VH ,80.0,3,4200.0,52.5,52.375528,4.890916000000002
86,Gerard Douplein 4 1                       , 1072 VE ,32.0,2,2500.0,78.125,52.35595,4.892368
87,Erich Salomonstraat 655                       , 1087 KC ,85.0,3,2000.0,23.52941176470589,52.354309,5002371.0
88,Pieter Calandlaan                       , 1060 TV ,100.0,3,2000.0,20.0,52.352802,4.803401999999998
89,Piet Gijzenbrugstraat                       , 1059 XG ,60.0,3,2500.0,41.66666666666666,52.350263,4.846845
90,Medemblikstraat 33 1+2                       , 1023 XN ,100.0,4,2500.0,25.0,52.393417,4.939021
91,Rapenburg 103 2                       , 1011 TW ,150.0,6,3650.0,24.33333333333333,52.370324,4.910563
92,Oudezijds Voorburgwal 134 1                       , 1012 GH ,41.0,2,2300.0,56.09756097560975,52.373244,4.897036
93,Rijswijkstraat                       , 1062 EP ,60.0,2,3500.0,58.33333333333334,52.350062,4.8402980000000015
94,Oudezijds Voorburgwal                       , 1012 EH ,100.0,3,4500.0,45.0,52.372452,4.896855
95,George Gershwinlaan 167                       , 1082 MT ,97.0,2,2950.0,30.41237113402061,52.335851,4.872888
96,Hoogte Kadijk 54 2                       , 1018 BN ,51.0,3,2800.0,54.901960784313715,52.369735,4.913946
97,Zeilstraat 48 1                       , 1075 SJ ,55.0,2,3500.0,63.63636363636363,52.350938,4.853867
98,Gustav Mahlerlaan                       , 1082 MK ,42.0,1,2300.0,54.76190476190475,52.336678000000006,4.877193
99,Martin Vlaarkade                       , 1013 CS ,60.0,2,2000.0,33.333333333333336,52.388644,4.881382
100,Koerierstersplein                       , 1011 MR ,65.0,3,2150.0,33.07692307692308,52.369369,4.907604
101,Veerstraat                       , 1075 SZ ,60.0,2,2800.0,46.66666666666666,52.35139,4.853946
102,Lutmastraat 155 D                       , 1073 GW ,43.0,2,2500.0,58.139534883720934,52.351491,4.900858
103,Brouwersgracht 248 A                       , 1013 HE ,78.0,2,4000.0,51.282051282051285,52.382417,4.885611
104,Brouwersgracht 248 K                       , 1013 HE ,60.0,2,2150.0,35.833333333333336,52.382417,4.885611
105,Andreasplein 89                       , 1058 GD ,145.0,4,4200.0,28.96551724137931,52.357232,4.846467
106,Jan Smitstraat                       , 1069 SZ ,95.0,3,3000.0,31.578947368421048,52.351232,4.800521
107,Tweede Anjeliersdwarsstraat                       , 1015 NT ,50.0,2,3500.0,70.0,52.377689,4.881539
108,Staalstraat 11 D                       , 1011 JK ,54.0,2,2300.0,42.5925925925926,52.368238,4.897623
109,Holendrechtstraat                       , 1078 TT ,22.0,1,915.0,41.59090909090909,52.349028,4.908976999999998
110,Mauritskade                       , 1093 RR ,50.0,2,2500.0,50.0,52.36339,4.922301
111,Prinsengracht 528 3                       , 1017 KJ ,80.0,2,4500.0,56.25,52.36334,4.886501
112,Overtoom                       , 1054 JD ,70.0,3,2500.0,35.714285714285715,52.361024,4.868881
113,Andries Copierstraat 38                       , 1061 SE ,104.0,3,3600.0,34.615384615384606,52.36703,4.836906
114,Korte Leidsedwarsstraat                       , 1017 PV ,55.0,2,2500.0,45.45454545454545,52.363282,4.884683
115,Veembroederhof 161                       , 1019 HD ,130.0,1,4200.0,32.30769230769231,52.3764,4.924331
116,Van Nijenrodeweg 509                       , 1082 HP ,36.0,2,1300.0,36.111111111111114,52.327508,4.874333999999998
117,Hoogoord                       , 1102 CB ,93.0,6,4350.0,46.774193548387096,52.313324,4.957086
118,Elisabeth Wolffstraat                       , 1053 TR ,70.0,2,2750.0,39.285714285714285,52.369781,4.867401
119,Termini 449                       , 1025 XM ,75.0,3,3500.0,46.66666666666666,52.401757,4.934012
120,Fritz Dietrich Kahlenbergstraat                       , 1087 MS ,90.0,3,3500.0,38.888888888888886,52.349884,5011086.0
121,Churchill-laan                       , 1078 EW ,141.0,3,9000.0,63.829787234042556,52.347366,4.890144
122,Geldersekade                       , 1011 EJ ,80.0,3,3000.0,37.5,52.374888,4.901322
123,Heer Halewijnstraat                       , 1055 SR ,53.0,3,1700.0,32.075471698113205,52.377754,4.854435
124,Buiksloterweg 101                       , 1031 CJ ,56.0,1,2300.0,41.07142857142857,52.388363,4.915202
125,Funenpark 514                       , 1018 AK ,115.0,3,4500.0,39.130434782608695,52.36835,4.929804
126,Tweede Oosterparkstraat 3 HS                       , 1091 HT ,65.0,3,3500.0,53.84615384615386,52.355932,4.9122580000000005
127,Madurastraat 9 B                       , 1094 GC ,65.0,2,1700.0,26.153846153846153,52.364412,4.936261
128,Vrolikstraat 349 R                       , 1092 TB ,83.0,3,3500.0,42.16867469879518,52.356934,4.920026999999998
129,Tweede Jan van der Heijdenstraat                       , 1074 XR ,47.0,2,3000.0,63.829787234042556,52.355767,4.901695
130,Ten Katestraat                       , 1053 CG ,62.0,3,2800.0,45.161290322580655,52.366014,4.86771
131,Pieter Cornelisz. Hooftstraat 57 I                       , 1071 BN ,70.0,3,3150.0,45.0,52.360347,4.881598
132,Overtoom                       , 1054 HC ,82.0,3,4000.0,48.780487804878035,52.361024,4.868881
133,Sarphatipark 116 IV                       , 1073 ED ,75.0,3,2500.0,33.333333333333336,52.353771,4.897985
134,Overtoom                       , 1054 JD ,166.0,7,4650.0,28.01204819277109,52.361024,4.868881
135,Cornelis Schuytstraat 38 II                       , 1071 JK ,133.0,4,4500.0,33.83458646616541,52.354268,4.872013
136,Vondelstraat 170 I                       , 1054 GV ,90.0,3,3650.0,40.55555555555557,52.360621,4.870868
137,Agamemnonstraat                       , 1076 LN ,125.0,5,3500.0,28.0,52.344637,4.8636300000000015
138,Lauriergracht 121 III-IV                       , 1016 RK ,112.0,3,3650.0,32.589285714285715,52.37043900000001,4.877802
139,Archimedesweg 65 I                       , 1098 JM ,50.0,2,2300.0,46.0,52.355872,4.939879
140,Dusartstraat                       , 1072 HT ,55.0,2,2000.0,36.36363636363637,52.35183,4.889398
141,Nijenburg 88                       , 1081 GG ,80.0,4,4450.0,55.625,52.32854,4.865784
142,Weenahof 16                       , 1083 JE ,97.0,3,3500.0,36.082474226804116,52.333787,4.881861
143,Overvoorde                       , 1082 GB ,110.0,4,3450.0,31.363636363636363,52.32619,4.872353
144,Amerbos                       , 1025 ZT ,85.0,4,2150.0,25.294117647058826,52.403942,4.941201
145,Rosy Wertheimstraat                       , 1082 MZ ,48.0,2,3500.0,72.91666666666667,52.336185,4.8757
146,Willem de Zwijgerlaan                       , 1056 JN ,60.0,3,2500.0,41.66666666666666,52.371166,4.8631980000000015
147,Beethovenstraat                       , 1077 JS ,140.0,4,4500.0,32.142857142857146,52.343825,4.877039
148,Amstelvlietstraat                       , 1096 GG ,175.0,4,9000.0,51.42857142857143,52.338908,4.918436
149,Liendenhof                       , 1108 HP ,115.0,4,4000.0,34.78260869565217,52.307937,4.983103
150,Burgemeester Hogguerstraat                       , 1064 CM ,93.0,2,3000.0,32.25806451612903,52.373285,4.829275
151,Nieuwe Spiegelstraat 68 1                       , 1017 DH ,78.0,2,4500.0,57.69230769230769,52.36315,4.888324
152,Boterdiepstraat                       , 1079 SW ,81.0,3,3000.0,37.03703703703704,52.342121,4.909733
153,Kromme-Mijdrechtstraat                       , 1079 KR ,60.0,2,3500.0,58.33333333333334,52.347187,4.908138
154,Marnixstraat 220 E                       , 1016 TL ,71.0,3,3500.0,49.29577464788731,52.371239,4.876067
155,Weteringschans 95 II                       , 1017 RZ ,85.0,4,6200.0,72.94117647058823,52.360989,4.887424
156,Singel 93 I                       , 1012 VG ,75.0,2,4450.0,59.33333333333334,52.376034,4.891513
157,Bellamystraat 32                       , 1053 BM ,58.0,2,2000.0,34.48275862068966,52.367179,4.865858
158,Loodskotterhof                       , 1034 CM ,82.0,3,2150.0,26.21951219512195,52.405708,4.90952
159,Niasstraat                       , 1095 VA ,106.0,3,3000.0,28.301886792452827,52.36502700000001,4.942769
160,Grensstraat                       , 1091 SW ,65.0,2,3000.0,46.153846153846146,52.354195,4.910623
161,Prinsengracht                       , 1017 LD ,150.0,5,4700.0,31.33333333333333,52.362122,4.898975
162,J.J. Cremerstraat 4 hs                       , 1054 TD ,65.0,2,3000.0,46.153846153846146,52.36020300000001,4.8576169999999985
163,Van Nijenrodeweg                       , 1083 EL ,87.0,3,2800.0,32.18390804597701,52.327461,4.858417
164,Van Linschotenstraat 38                       , 1013 PN ,63.0,3,3600.0,57.14285714285714,52.389254,4.88709
165,Sarphatipark 114 III                       , 1073 ED ,80.0,3,4500.0,56.25,52.353744,4.897897
166,Utrechtsedwarsstraat                       , 1017 WG ,40.0,1,2300.0,57.5,52.361512,4.899352
167,Reguliersgracht                       , 1017 LR ,55.0,3,3450.0,62.72727272727273,52.362236,4.896054
168,Nieuwezijds Voorburgwal                       , 1012 SE ,60.0,2,2150.0,35.833333333333336,52.374402,4.891203
169,Mensinge 70                       , 1083 HG ,110.0,3,3450.0,31.363636363636363,52.332646,4.888374
170,Govert Flinckstraat 110 B                       , 1072 EL ,96.0,3,4350.0,45.3125,52.354349,4.889876
171,Boomstraat                       , 1015 LA ,50.0,2,3000.0,60.0,52.379166,4.88461
172,Da Costastraat 10 1                       , 1053 ZB ,78.0,2,2500.0,32.05128205128205,52.367758,4.875131
173,Jacob van Lennepstraat                       , 1053 KB ,50.0,2,2500.0,50.0,52.366959,4.875331
174,Van Oldenbarneveldtstraat                       , 1052 JV ,71.0,3,3050.0,42.95774647887324,52.375406,4.8746
175,Oudezijds Voorburgwal 43 1                       , 1012 EJ ,28.0,2,2000.0,71.42857142857143,52.374414,4.899625
176,Van Heenvlietlaan 186 A                       , 1083 CM ,126.0,4,4300.0,34.12698412698413,52.327461,4.882212
177,Ceintuurbaan                       , 1074 EB ,60.0,2,2800.0,46.66666666666666,52.354812,4.9010370000000005
178,Duinluststraat                       , 1024 VH ,95.0,3,2500.0,26.315789473684212,52.395356,4.952368
179,Waldeck Pyrmontlaan 20 3RV                       , 1075 BX ,180.0,6,3500.0,19.444444444444443,52.353227,4.8572739999999985
180,Oudeschans 67 E                       , 1011 KW ,65.0,2,4000.0,61.53846153846154,52.370457,4.903454
181,Crynssenstraat 51                       , 1058 XV ,60.0,2,3500.0,58.33333333333334,52.363162,4.855981
182,Transvaalkade                       , 1092 JN ,40.0,2,2500.0,62.5,52.352773,4.92225
183,Bentinckstraat                       , 1051 GJ ,80.0,4,4200.0,52.5,52.383442,4.872928
184,Kinkerstraat                       , 1053 GG ,76.0,2,3000.0,39.473684210526315,52.367586,4.873204
185,Oudezijds Achterburgwal 169 A                       , 1012 DH ,75.0,3,3500.0,46.66666666666666,52.371067,4.896708
186,Geelvinckssteeg 6 1                       , 1017 BE ,65.0,3,3000.0,46.153846153846146,52.366516,4.891502
187,Runstraat 23 III                       , 1016 GJ ,60.0,3,2500.0,41.66666666666666,52.368836,4.883268
188,Prins Hendrikkade                       , 1011 AN ,65.0,2,3000.0,46.153846153846146,52.378884,4.895995
189,Brouwersgracht 248 F                       , 1013 HE ,62.0,2,2500.0,40.32258064516129,52.382417,4.885611
190,Brouwersgracht 248 A                       , 1013 HE ,78.0,2,4000.0,51.282051282051285,52.382417,4.885611
191,Brouwersgracht 248 K                       , 1013 HE ,60.0,2,2150.0,35.833333333333336,52.382417,4.885611
192,Derde Schinkelstraat 27 G                       , 1075 TK ,53.0,2,2500.0,47.16981132075472,52.352741,4.854595
193,Da Costastraat                       , 1053 ZD ,140.0,4,3500.0,25.0,52.371164,4.873306
194,Rozenstraat                       , 1016 PB ,30.0,2,1950.0,65.0,52.372418,4.879646
195,Jan Olphert Vaillantlaan                       , 1086 ZA ,60.0,3,2150.0,35.833333333333336,52.362457,4.979589
196,Cruquiusweg 107                       , 1019 AG ,50.0,2,3000.0,60.0,52.36953,4.954224
197,Goudsbloemstraat                       , 1015 JR ,50.0,2,2500.0,50.0,52.380648,4.883967
198,Hoendiepstraat                       , 1079 LW ,61.0,3,3500.0,57.377049180327866,52.342346,4.910558999999999
199,Overtoom                       , 1054 LG ,90.0,2,3000.0,33.333333333333336,52.361024,4.868881
200,Tweede Jan Steenstraat                       , 1073 VL ,60.0,3,3500.0,58.33333333333334,52.355608,4.89889
201,Corantijnstraat                       , 1058 DD ,55.0,3,3500.0,63.63636363636363,52.361822,4.852588
202,Schinkelhavenkade                       , 1075 VS ,91.0,2,3500.0,38.46153846153846,52.355516,4.854101
203,Kromme-Mijdrechtstraat                       , 1079 KR ,60.0,2,3500.0,58.33333333333334,52.347187,4.908138
204,Brouwersgracht 248 B                       , 1013 HE ,62.0,2,2800.0,45.161290322580655,52.382417,4.885611
205,Jephtastraat                       , 1055 JT ,84.0,4,2500.0,29.761904761904763,52.380952,4.845597
206,Van der Palmkade 214                       , 1051 RL ,100.0,3,3500.0,35.0,52.379658,4.873011
207,Singel                       , 1012 VG ,60.0,3,3150.0,52.5,52.375858,4.891292
208,Jan Olphert Vaillantlaan                       , 1086 ZA ,60.0,3,2150.0,35.833333333333336,52.362457,4.979589
209,Berenstraat                       , 1016 GH ,60.0,2,2500.0,41.66666666666666,52.370433,4.882517
210,Overtoom 244 IV                       , 1054 JA ,100.0,3,2950.0,29.5,52.361553,4.870123
211,Wouwermanstraat 24 3                       , 1071 LZ ,80.0,3,2150.0,26.875,52.355049,4.879065
212,Valschermkade                       , 1059 CD ,18.0,1,2000.0,111.11111111111113,52.342239,4.845758999999998
213,Leliegracht                       , 1015 DJ ,59.0,2,2500.0,42.3728813559322,52.375484,4.8859900000000005
214,Kramatweg                       , 1095 JW ,50.0,2,2300.0,46.0,52.360388,4.945341
215,IJburglaan                       , 1087 CE ,118.0,3,4450.0,37.71186440677965,52.368507,4.971287
216,Bella Vistastraat                       , 1096 GM ,100.0,4,3500.0,35.0,52.338005,4.919954
217,Leidsestraat 108 C                       , 1017 PG ,88.0,3,3000.0,34.09090909090909,52.364587,4.883215
218,Hoofdweg 230 2                       , 1057 DG ,58.0,3,3500.0,60.3448275862069,52.367094,4.852836
219,Sarphatistraat                       , 1018 EX ,70.0,3,3500.0,50.0,52.360839,4.9067050000000005
220,Nachtwachtlaan                       , 1058 ES ,98.0,4,4500.0,45.91836734693877,52.36012,4.843505
221,Theodoor van Hoytemastraat                       , 1062 CG ,40.0,2,2500.0,62.5,52.360356,4.837884
222,Onstein 36                       , 1082 KL ,70.0,3,3000.0,42.857142857142854,52.331405,4.869374
223,Rokin 122 4                       , 1012 LC ,120.0,3,3500.0,29.16666666666667,52.368567,4.891993
224,Commelinstraat                       , 1093 TP ,60.0,2,2500.0,41.66666666666666,52.363788,4.92666
225,Elzenhagensingel                       , 1022 LA ,98.0,3,1400.0,14.285714285714285,52.406032,4.935382
226,Kromme-Mijdrechtstraat                       , 1079 KR ,60.0,2,3500.0,58.33333333333334,52.347187,4.908138
227,Brouwersgracht 248 F                       , 1013 HE ,62.0,2,2500.0,40.32258064516129,52.382417,4.885611
228,Kinkerstraat                       , 1053 GB ,43.0,2,2350.0,54.65116279069768,52.367586,4.873204
229,Lange Niezel                       , 1012 GS ,30.0,1,2000.0,66.66666666666667,52.37500900000001,4.898612
230,Arent Janszoon Ernststraat                       , 1082 LM ,80.0,4,2500.0,31.25,52.331795,4.889087
231,H. Cleyndertweg                       , 1025 EE ,81.0,3,2500.0,30.8641975308642,52.403167,4.93714
232,Schipluidenlaan                       , 1062 HE ,75.0,3,3500.0,46.66666666666666,52.356334,4.839951
233,Jan Luijkenstraat 42 B                       , 1071 CR ,43.0,2,2000.0,46.511627906976734,52.360139,4.882002
234,Grubbehoeve                       , 1103 GZ ,65.0,2,2350.0,36.153846153846146,52.321782,4.976754
235,Marnixstraat                       , 1017 PJ ,50.0,2,2800.0,56.0,52.365369,4.880152
236,Eerste Helmersstraat                       , 1054 DV ,55.0,2,2300.0,41.81818181818182,52.363891,4.876734
237,Pretoriusstraat 58 1                       , 1092 GJ ,85.0,3,3150.0,37.058823529411775,52.355128,4.922513
238,Van Spilbergenstraat 10 1                       , 1057 RG ,58.0,3,1700.0,29.310344827586214,52.367437,4.851202
239,Amstelveenseweg 864 I                       , 1081 JM ,42.0,2,2000.0,47.61904761904761,52.328655,4.85723
240,Bloemgracht 158 C                       , 1015 TT ,45.0,2,2150.0,47.77777777777778,52.374287,4.87811
241,Bolestein 268                       , 1081 EC ,88.0,3,3000.0,34.09090909090909,52.325837,4.858159
242,Ruysdaelstraat                       , 1071 XE ,55.0,2,3000.0,54.54545454545455,52.354581,4.886157
243,Kuipersstraat                       , 1073 ER ,40.0,2,2000.0,50.0,52.353543,4.902691
244,Marnixstraat 77 D                       , 1015 VD ,130.0,4,5000.0,38.46153846153846,52.382095,4.881634
245,Admiralengracht 113 A                       , 1057 ET ,114.0,3,4500.0,39.473684210526315,52.368917,4.856676
246,Daniël Stalpertstraat 28 A                       , 1072 XG ,91.0,4,3150.0,34.615384615384606,52.35622,4.888285
247,Herengracht                       , 1015 BB ,80.0,3,4200.0,52.5,52.365048,4.898317
248,Driekoningenstraat                       , 1016 AL ,93.0,3,4000.0,43.01075268817203,52.373945,4.8881440000000005
249,Amstelveenseweg 206 IV                       , 1075 XS ,55.0,3,2800.0,50.90909090909091,52.351622,4.8559730000000005
250,Haarlemmermeerstraat 68 2                       , 1058 KC ,75.0,5,2500.0,33.333333333333336,52.35582,4.850095
251,Valeriusstraat                       , 1071 MN ,57.0,3,2200.0,38.59649122807018,52.353222,4.865353
252,Overtoom                       , 1054 HK ,115.0,3,5500.0,47.82608695652174,52.361024,4.868881
253,Jisperveldstraat                       , 1024 AZ ,85.0,4,3000.0,35.29411764705883,52.398777,4.951183
254,Ceintuurbaan                       , 1074 EB ,60.0,2,2800.0,46.66666666666666,52.354812,4.9010370000000005
255,Brouwersgracht 248 A                       , 1013 HE ,78.0,2,4000.0,51.282051282051285,52.382417,4.885611
256,Hemonystraat                       , 1074 BL ,75.0,2,3150.0,42.0,52.356921,4.902516
257,Van Baerlestraat                       , 1071 BD ,90.0,3,4200.0,46.66666666666666,52.354889,4.880967
258,Grote Ruwenberg                       , 1083 BS ,66.0,3,2350.0,35.60606060606061,52.325415,4.8842
259,Zaandijkstraat                       , 1013 VN ,50.0,2,3500.0,70.0,52.38798,4.879565
260,Ferdinand Bolstraat                       , 1072 LB ,65.0,2,2800.0,43.07692307692307,52.350566,4.891676
261,Wiborgeiland                       , 1014 ZC ,71.0,2,3150.0,44.36619718309859,52.393456,4.87726
262,Frans Halsstraat                       , 1072 BX ,50.0,2,3000.0,60.0,52.356556,4.888733
263,Nassaukade                       , 1054 AA ,153.0,5,4500.0,29.411764705882355,52.379572,4.878407
264,Gerard Douplein 7 2                       , 1073 XE ,35.0,2,2500.0,71.42857142857143,52.356267,4.892951999999998
265,Amsteldijk 45 1ACHTER                       , 1074 HW ,48.0,3,3000.0,62.5,52.354738,4.905827
266,Amsteldijk 45 1 VOOR                       , 1074 HW ,40.0,2,2000.0,50.0,52.354738,4.905827
267,Emmastraat 40 II                       , 1075 HW ,110.0,3,3500.0,31.818181818181817,52.352618,4.869919
268,Nova Zemblastraat 49                       , 1013 RJ ,100.0,4,3000.0,30.0,52.389645,4.883781
269,Van Suchtelen van de Haarestraat                       , 1068 GV ,100.0,4,4450.0,44.5,52.357359,4.800954
270,Amstel 108 B                       , 1017 AD ,75.0,3,5500.0,73.33333333333333,52.36696,4.897082
271,Tweede Jan van der Heijdenstraat 26 2                       , 1073 VJ ,60.0,3,3000.0,50.0,52.355145,4.899908
272,Kloekhorststraat 163                       , 1104 ML ,73.0,3,3500.0,47.94520547945206,52.317284,4.969253
273,Westerdok                       , 1013 BH ,65.0,3,3500.0,53.84615384615386,52.385518,4.890923
274,Bilderdijkstraat 69 1A                       , 1053 KM ,32.0,2,2000.0,62.5,52.372548,4.871593
275,Deurloostraat 40 2                       , 1078 JC ,81.0,3,3000.0,37.03703703703704,52.346432,4.892328
276,Jacob van Lennepkade                       , 1053 NM ,68.0,3,3150.0,46.32352941176471,52.366584,4.875938
277,IJburglaan                       , 1087 CE ,120.0,3,4450.0,37.083333333333336,52.368507,4.971287
278,Beethovenstraat 73 A                       , 1077 HP ,70.0,3,3000.0,42.857142857142854,52.347275,4.877231
279,Kotterspad 32                       , 1081 KP ,95.0,2,3050.0,32.10526315789474,52.33220900000001,4.856044
280,Ceintuurbaan                       , 1074 EB ,60.0,2,2800.0,46.66666666666666,52.354812,4.9010370000000005
281,Hageland 132 K                       , 1066 SB ,40.0,2,2500.0,62.5,52.34526500000001,4.812197
282,Tweede Kostverlorenkade                       , 1052 RH ,60.0,3,2500.0,41.66666666666666,52.36509,4.860831
283,De Kempenaerstraat                       , 1051 CN ,44.0,3,2300.0,52.27272727272727,52.381762,4.869285
284,Wijdesteeg                       , 1012 RN ,55.0,2,3000.0,54.54545454545455,52.371607,4.889978
285,Spuistraat                       , 1012 VN ,62.0,2,4000.0,64.51612903225806,52.37056,4.889144
286,Spuistraat                       , 1012 VN ,85.0,3,5500.0,64.70588235294117,52.37056,4.889144
287,Tielstraat                       , 1107 PZ ,52.0,2,2750.0,52.884615384615394,52.291833,4.96894
288,Nieuwe Nieuwstraat 45                       , 1012 NG ,90.0,3,3150.0,35.0,52.375276,4.8929019999999985
289,Amstelveenseweg                       , 1075 VZ ,65.0,3,3000.0,46.153846153846146,52.350707,4.8568419999999985
290,Buitendraaierij                       , 1021 NM ,39.0,2,2300.0,58.97435897435897,52.381813,4.916164
291,Gaaspstraat                       , 1079 VD ,63.0,3,3150.0,50.0,52.344208,4.908371
292,Gaaspstraat                       , 1079 VC ,62.0,3,3150.0,50.806451612903224,52.344208,4.908371
293,Da Costastraat                       , 1053 ZJ ,98.0,3,2950.0,30.102040816326532,52.371164,4.873306
294,J.J. Viottastraat 21 II                       , 1071 JN ,202.0,6,9850.0,48.762376237623755,52.353327,4.873801
295,Kotteraarstraat 2                       , 1033 MC ,75.0,3,2800.0,37.333333333333336,52.408408,4.891577
296,Loenermark 820                       , 1025 VN ,65.0,2,2000.0,30.76923076923077,52.397444,4.9297830000000005
297,Duifjessteeg 12                       , 1012 KW ,89.0,3,3150.0,35.39325842696629,52.370849,4.8918940000000015
298,De Lairessestraat                       , 1071 PL ,86.0,2,3450.0,40.11627906976744,52.352568,4.867877
299,IJburglaan 960                       , 1087 JK ,129.0,3,2500.0,19.37984496124031,52.353664,4.9974300000000005
300,Cas Oorthuyskade 172                       , 1087 BB ,182.0,4,3500.0,19.23076923076923,52.360235,4.989694
301,Galjootstraat 60                       , 1086 VE ,83.0,3,2500.0,30.120481927710838,52.364314,4.986399
302,Overschiestraat 170 C3                       , 1062 XK ,74.0,3,1800.0,24.324324324324326,52.348849,4.839201
303,Overschiestraat 170 B37                       , 1062 XK ,77.0,3,2600.0,33.76623376623377,52.348849,4.839201
304,Overschiestraat 170 B38                       , 1062 XK ,77.0,3,2600.0,33.76623376623377,52.348849,4.839201
305,Overschiestraat 170 B36                       , 1062 XK ,77.0,3,2600.0,33.76623376623377,52.348849,4.839201
306,Muiderstraat 10 B                       , 1011 RB ,65.0,2,3000.0,46.153846153846146,52.36748400000001,4.905997
307,Govert Flinckstraat                       , 1074 CJ ,70.0,2,4500.0,64.28571428571429,52.355581,4.895827
308,Geldersekade 102 D                       , 1012 BM ,50.0,2,2700.0,54.0,52.373708,4.900629
309,Pretoriusstraat                       , 1092 GH ,80.0,3,3500.0,43.75,52.354728,4.921661
310,Zocherstraat                       , 1054 LS ,81.0,3,4450.0,54.93827160493828,52.357236,4.8565809999999985
311,Holendrechtstraat                       , 1078 TT ,40.0,1,1950.0,48.75,52.349028,4.908976999999998
312,Hofmeyrstraat                       , 1091 NA ,73.0,2,2800.0,38.35616438356164,52.351443,4.9164010000000005
313,H. Cleyndertweg                       , 1025 EB ,110.0,4,3000.0,27.272727272727273,52.403167,4.93714
314,Lange Leidsedwarsstraat                       , 1017 NR ,40.0,2,2300.0,57.5,52.363977,4.884571
315,Grensstraat                       , 1091 SV ,65.0,3,2500.0,38.46153846153846,52.354195,4.910623
316,Langswater 820                       , 1069 EH ,62.0,3,2300.0,37.096774193548384,52.359045,4.787959
317,Haarlemmerweg                       , 1051 KS ,75.0,3,3000.0,40.0,52.384849,4.8507440000000015
318,Herengracht                       , 1017 BX ,145.0,4,3500.0,24.13793103448276,52.365048,4.898317
319,Tweede Jan Steenstraat                       , 1074 CP ,59.0,3,4450.0,75.42372881355931,52.356401,4.901294
320,Fagelstraat 66 bv                       , 1052 GG ,97.0,3,5500.0,56.701030927835035,52.380355,4.876219
321,Eerste Constantijn Huygensstraat                       , 1054 BS ,51.0,3,4000.0,78.43137254901961,52.362854,4.8753
322,Eendrachtstraat                       , 1078 XZ ,70.0,3,3000.0,42.857142857142854,52.345101,4.889051
323,Runstraat                       , 1016 GK ,59.0,2,3000.0,50.847457627118644,52.368888,4.883527
324,Van Heenvlietlaan 160                       , 1083 CM ,135.0,4,2950.0,21.85185185185185,52.327514,4.882211
325,Apollolaan                       , 1077 AE ,120.0,5,4750.0,39.583333333333336,52.350372,4.8705120000000015
326,Valeriusstraat 27 C*                       , 1071 MC ,124.0,5,4000.0,32.25806451612903,52.35158,4.858601
327,Van Ostadestraat 4 hs                       , 1072 SX ,41.0,2,2500.0,60.97560975609756,52.354942,4.905282
328,Eef Kamerbeekstraat 532                       , 1095 MP ,75.0,2,2000.0,26.66666666666667,52.371642,4.96685
329,Amstelveenseweg 208 IV                       , 1075 XS ,80.0,3,3600.0,45.0,52.351586,4.855958
330,Brouwersgracht 248 A                       , 1013 HE ,78.0,2,4000.0,51.282051282051285,52.382417,4.885611
331,Wilhelminastraat                       , 1054 WH ,65.0,3,2000.0,30.76923076923077,52.361416,4.862565
332,Baarsjesweg 235 2                       , 1058 AA ,53.0,2,2150.0,40.56603773584906,52.362505,4.857736
333,Wingerdweg 287                       , 1032 AK ,51.0,2,2150.0,42.15686274509804,52.397019,4.917739
334,Lomanstraat                       , 1075 PS ,210.0,5,8000.0,38.095238095238095,52.351284,4.859917
335,J.J. Cremerplein 10 III                       , 1054 TK ,65.0,3,3000.0,46.153846153846146,52.359761,4.8591190000000015
336,Plantage Kerklaan                       , 1018 CW ,140.0,2,3650.0,26.07142857142857,52.368127,4.91343
337,Gustav Mahlerlaan                       , 1082 MK ,45.0,1,2000.0,44.444444444444436,52.336678000000006,4.877193
338,Zocherstraat 58 2                       , 1054 MA ,109.0,3,2950.0,27.06422018348624,52.356869,4.855587
339,Rozengracht 231 1                       , 1016 NA ,45.0,2,2500.0,55.55555555555557,52.372241,4.876739
340,Elzenhagensingel 313                       , 1022 LA ,101.0,3,2350.0,23.26732673267327,52.402338,4.930535
341,Buitendraaierij                       , 1021 NN ,46.0,2,2300.0,50.0,52.381813,4.916164
342,Prinseneiland 55 C                       , 1013 LM ,45.0,2,1700.0,37.77777777777778,52.386422,4.886946
343,Govert Flinckstraat 113 2A                       , 1072 EG ,33.0,2,1950.0,59.09090909090909,52.354841,4.891676
344,Albert Cuypstraat 138 2V                       , 1073 BJ ,32.0,2,2500.0,78.125,52.355479,4.893695
345,Johannes Verhulststraat 119 1                       , 1071 MZ ,83.0,3,3650.0,43.975903614457856,52.354043,4.870959
346,Spaarndammerstraat 21 2                       , 1013 SR ,70.0,2,1700.0,24.285714285714285,52.388343,4.880035
347,Oostenburgerpark 24                       , 1018 HT ,47.0,2,2300.0,48.93617021276596,52.369004,4.9244379999999985
348,Derde Leliedwarsstraat 13 3                       , 1015 TD ,55.0,3,3000.0,54.54545454545455,52.374651,4.879163
349,Van Walbeeckstraat                       , 1058 CX ,60.0,3,2800.0,46.66666666666666,52.36147800000001,4.851012
350,Reestraat 28 1                       , 1016 DN ,55.0,2,2500.0,45.45454545454545,52.372459,4.88352
351,Keizersgracht 634 L                       , 1017 ER ,65.0,2,3000.0,46.153846153846146,52.363711,4.891254
352,Postjesweg                       , 1062 JV ,80.0,4,2800.0,35.0,52.3648,4.858389
353,Kinkerstraat 215 B                       , 1053 DS ,61.0,2,3000.0,49.18032786885247,52.365372,4.865792
354,Buitenzagerij 64                       , 1021 NR ,55.0,2,1950.0,35.45454545454545,52.382375,4.917013
355,Jacob van Lennepkade 406 2                       , 1053 NN ,48.0,1,3000.0,62.5,52.362251,4.859192
356,Arondeusstraat 23                       , 1063 GB ,23.0,1,1900.0,82.6086956521739,52.382706,4.825916
357,Brouwersgracht 248 K                       , 1013 HE ,60.0,2,2150.0,35.833333333333336,52.382417,4.885611
358,Brouwersgracht 248 F                       , 1013 HE ,62.0,2,2500.0,40.32258064516129,52.382417,4.885611
359,Ten Katestraat 11                       , 1053 BV ,50.0,3,2500.0,50.0,52.367855,4.866438
360,Kinkerstraat                       , 1053 DG ,68.0,2,2500.0,36.76470588235294,52.367586,4.873204
361,Willem Heselaarsstraat 70 BG                       , 1069 KA ,95.0,1,4000.0,42.10526315789474,52.352124,4.798694
362,Arent Janszoon Ernststraat                       , 1082 LD ,30.0,1,2500.0,83.33333333333333,52.332122,4.888758
363,Valkenburgerstraat                       , 1011 NC ,95.0,3,5000.0,52.631578947368425,52.369578,4.906694
364,Mortelstraat 127                       , 1019 VE ,85.0,3,3000.0,35.29411764705883,52.368949,4.951658
365,Van Baerlestraat                       , 1071 AS ,83.0,3,5000.0,60.240963855421676,52.354889,4.880967
366,Nieuwe Looiersstraat                       , 1017 VD ,50.0,3,2800.0,56.0,52.360618,4.893686
367,Herengracht                       , 1016 BP ,55.0,2,2500.0,45.45454545454545,52.365048,4.898317
368,Kinkerstraat                       , 1053 GB ,50.0,2,3000.0,60.0,52.367586,4.873204
369,Tweede Jan Steenstraat 101 III                       , 1074 CM ,118.0,4,5500.0,46.61016949152543,52.357046,4.903175
370,Valeriusstraat 239 IV                       , 1075 GA ,26.0,1,1300.0,50.0,52.351263,4.858179
371,Van Spilbergenstraat                       , 1057 RP ,127.0,4,4250.0,33.46456692913386,52.367038,4.851559
372,Kinkerstraat 338 1                       , 1053 GE ,35.0,2,2350.0,67.14285714285714,52.364853,4.862318
373,Bilderdijkstraat                       , 1053 KT ,46.0,3,3000.0,65.21739130434783,52.37083,4.869921
374,Elisabeth Wolffstraat                       , 1053 TV ,50.0,3,4000.0,80.0,52.369781,4.867401
375,Nicolaas Maesstraat                       , 1071 RA ,40.0,2,2150.0,53.75,52.354105,4.8780230000000016
376,Albert Cuypstraat 268 4 V                       , 1073 BR ,24.0,2,2500.0,104.16666666666669,52.356812,4.898832
377,Brouwersgracht 248 F                       , 1013 HE ,62.0,2,2500.0,40.32258064516129,52.382417,4.885611
378,Brouwersgracht 248 K                       , 1013 HE ,60.0,2,2150.0,35.833333333333336,52.382417,4.885611
379,Oude Doelenstraat                       , 1012 ED ,38.0,2,2300.0,60.526315789473685,52.371662,4.896365
380,Langswater                       , 1069 EC ,72.0,4,2500.0,34.72222222222222,52.356349,4.788918
381,Gerard Doustraat                       , 1073 XA ,56.0,3,3500.0,62.5,52.355304,4.8898220000000014
382,Assumburg                       , 1081 GC ,115.0,5,2950.0,25.65217391304348,52.328355,4.867872
383,Spaarndammerstraat 33 3                       , 1013 SR ,60.0,4,2500.0,41.66666666666666,52.388638,4.8798059999999985
384,Amsteldijk 15 4                       , 1074 HR ,70.0,2,3600.0,51.42857142857143,52.346071,4.91188
385,Tweede Jan Steenstraat 1 1                       , 1073 VK ,71.0,3,3650.0,51.40845070422535,52.355624,4.898244
386,Veldzicht 51                       , 1068 SM ,95.0,4,2200.0,23.157894736842106,52.363087,4.798299
387,S. F. van Ossstraat                       , 1068 JN ,55.0,2,2300.0,41.81818181818182,52.356205,4.813625
388,Eef Kamerbeekstraat                       , 1095 MP ,67.0,2,3000.0,44.77611940298507,52.372494,4.966063
389,Eef Kamerbeekstraat                       , 1095 MP ,61.0,2,1600.0,26.229508196721312,52.372494,4.966063
390,Berthold Brechtstraat                       , 1102 RW ,72.0,3,2500.0,34.72222222222222,52.318382,4.946321
391,Nassaukade 9 2                       , 1052 CE ,72.0,1,3000.0,41.66666666666666,52.375976,4.875815
392,Rustenburgerstraat                       , 1072 HC ,80.0,3,4350.0,54.375,52.35135,4.890665
393,Eemsstraat                       , 1079 TJ ,80.0,3,2200.0,27.5,52.341947,4.908885
394,Tweede Jan Steenstraat                       , 1074 CN ,75.0,3,2500.0,33.333333333333336,52.355608,4.89889
395,Jan Luijkenstraat 40 H                       , 1071 CR ,200.0,5,6500.0,32.5,52.360122,4.882134
396,Commelinstraat                       , 1093 TH ,44.0,3,2300.0,52.27272727272727,52.363788,4.92666
397,Elisabeth Wolffstraat                       , 1053 TW ,51.0,3,3500.0,68.62745098039215,52.369781,4.867401
398,Ecuplein 32                       , 1060 RN ,97.0,3,2800.0,28.8659793814433,52.349216,4.78523
399,Tugelaweg                       , 1092 VD ,72.0,2,3150.0,43.75,52.355156,4.91896
400,Singel                       , 1012 VD ,45.0,1,2350.0,52.22222222222222,52.375858,4.891292
401,Bestevâerstraat 195 2                       , 1055 TL ,57.0,3,2300.0,40.35087719298246,52.37003,4.856398
402,Slotermeerlaan 61                       , 1064 HA ,85.0,4,3150.0,37.058823529411775,52.37667,4.818987
403,Kromme-Mijdrechtstraat                       , 1079 KR ,60.0,2,3500.0,58.33333333333334,52.347187,4.908138
404,Brouwersgracht 248 A                       , 1013 HE ,78.0,2,4000.0,51.282051282051285,52.382417,4.885611
405,Dintelstraat                       , 1078 VZ ,75.0,3,3600.0,48.0,52.341869,4.89344
406,Azaleastraat                       , 1032 BV ,70.0,3,2150.0,30.714285714285715,52.395674,4.915981
407,Loenermark                       , 1025 VP ,75.0,3,3000.0,40.0,52.399525,4.932976
408,De Klencke 101 A                       , 1083 HH ,85.0,3,4500.0,52.941176470588225,52.333504,4.885280000000002
409,Gustav Mahlerlaan 126                       , 1082 ME ,169.0,3,3500.0,20.710059171597628,52.336923,4.87132
410,Gustav Mahlerlaan 184                       , 1082 ME ,175.0,3,3400.0,19.428571428571427,52.336913,4.871129
411,Kleiburg                       , 1104 EA ,70.0,3,2300.0,32.857142857142854,52.318351,4.980421
412,Eerste Jan Steenstraat                       , 1072 NR ,110.0,4,5000.0,45.45454545454545,52.353513,4.887904
413,Krommertstraat                       , 1056 TS ,60.0,3,2300.0,38.333333333333336,52.371945,4.8580190000000005
414,Weteringschans 235                       , 1017 XH ,78.0,3,4350.0,55.769230769230774,52.359511,4.895118
415,Brouwersgracht 248 C                       , 1013 HE ,78.0,2,3000.0,38.46153846153846,52.382417,4.885611
416,Eerste Van Swindenstraat                       , 1093 GB ,51.0,2,2500.0,49.01960784313725,52.362647,4.927389
417,Minervalaan                       , 1077 NP ,144.0,5,3650.0,25.347222222222207,52.342892,4.873114
418,Nicolaas Witsenkade 8 C                       , 1017 ZR ,76.0,2,4450.0,58.55263157894736,52.358235,4.895936
419,Javaplein 13 III                       , 1095 CH ,65.0,2,2150.0,33.07692307692308,52.363896,4.940156
420,De Boelelaan 449                       , 1082 RJ ,67.0,2,1500.0,22.38805970149253,52.334771,4.874646
421,De Boelelaan 461                       , 1082 RK ,67.0,2,2700.0,40.29850746268657,52.334771,4.874661
422,Overschiestraat 170 C1*                       , 1062 XK ,103.0,4,3400.0,33.00970873786408,52.348849,4.839201
423,Overschiestraat 170 B35*                       , 1062 XK ,112.0,4,4350.0,38.839285714285715,52.348849,4.839201
424,Rustenburgerstraat 392 hs                       , 1072 HH ,63.0,2,3500.0,55.55555555555557,52.351477,4.8909650000000005
425,Spuistraat 39 A                       , 1012 SR ,37.0,1,1300.0,35.135135135135144,52.376165,4.892936
426,Camperstraat 18 B                       , 1091 AG ,81.0,3,4350.0,53.7037037037037,52.358676,4.912832
427,Elandsgracht 19 2                       , 1016 TM ,60.0,2,3500.0,58.33333333333334,52.369736,4.88154
428,Brouwersgracht 248 K                       , 1013 HE ,60.0,2,2150.0,35.833333333333336,52.382417,4.885611
429,Schinkelkade 56 l                       , 1075 VL ,45.0,2,2350.0,52.22222222222222,52.35051,4.8526690000000015
430,Curaçaostraat 83 2                       , 1058 BR ,57.0,3,3500.0,61.403508771929815,52.308075,4.952173
431,Albert Cuypstraat 273                       , 1073 BH ,70.0,3,3150.0,45.0,52.354637,4.886776
432,Grevelingenstraat                       , 1078 KR ,87.0,3,2500.0,28.735632183908052,52.345888,4.888766
433,Vondelstraat                       , 1054 GV ,90.0,3,5000.0,55.55555555555557,52.3622,4.8770620000000005
434,Baarsjesweg                       , 1057 HL ,60.0,3,2500.0,41.66666666666666,52.367455,4.862214
435,Van Walbeeckstraat                       , 1058 CH ,60.0,4,2800.0,46.66666666666666,52.36147800000001,4.851012
436,Jan van Duivenvoordestraat 83                       , 1067 MT ,91.0,3,2500.0,27.47252747252747,52.379008,4.802582
437,Hemonystraat                       , 1074 BR ,75.0,3,3500.0,46.66666666666666,52.356921,4.902516
438,Gerard Doustraat                       , 1073 XA ,44.0,2,3000.0,68.18181818181819,52.355304,4.8898220000000014
439,Windroosplein 126                       , 1018 ZW ,47.0,2,2150.0,45.744680851063826,52.373258,4.925127
440,Admiralengracht 55 bg                       , 1057 EN ,56.0,2,2500.0,44.64285714285715,52.366709,4.85726
441,Rokin                       , 1012 KV ,41.0,2,2500.0,60.97560975609756,52.369731,4.892156
442,Kuinderstraat 37 I                       , 1079 DJ ,57.0,3,2150.0,37.719298245614034,52.341581,4.906161
443,Nieuwe Prinsengracht 112 II                       , 1018 VX ,54.0,2,3500.0,64.81481481481481,52.363923,4.910118
444,Schaarsbergenstraat 39                       , 1107 JS ,34.0,1,1550.0,45.58823529411765,52.29366,4.9808650000000005
445,Paramaribostraat                       , 1058 VH ,100.0,4,4300.0,43.0,52.361458,4.854373000000002
446,Loosduinenstraat                       , 1062 EG ,130.0,4,5000.0,38.46153846153846,52.351196,4.838119
447,Nieuwevaartweg                       , 1019 AL ,40.0,2,1950.0,48.75,52.367984,4.9535860000000005
448,Spuistraat                       , 1012 VW ,85.0,3,4050.0,47.647058823529406,52.37056,4.889144
449,Waterlooplein                       , 1011 PG ,43.0,2,2350.0,54.65116279069768,52.367166,4.902235
450,Valschermkade                       , 1059 CD ,18.0,1,2000.0,111.11111111111113,52.342239,4.845758999999998
451,Gustav Mahlerplein                       , 1082 MS ,86.0,2,4450.0,51.74418604651163,52.336651,4.873108
452,Korte Leidsedwarsstraat                       , 1017 RD ,80.0,3,4500.0,56.25,52.363282,4.884683
453,Kinkerstraat                       , 1053 DT ,43.0,2,2500.0,58.139534883720934,52.367586,4.873204
454,Brouwersgracht 248 A                       , 1013 HE ,78.0,2,4000.0,51.282051282051285,52.382417,4.885611
455,Tongelaer                       , 1083 BT ,68.0,2,2800.0,41.1764705882353,52.32642,4.884233999999998
456,IJdoornlaan 261 A3                       , 1024 KM ,88.0,3,1300.0,14.772727272727273,52.393143,4.955817
457,Gerard Doustraat 88 2V                       , 1072 VW ,30.0,1,2500.0,83.33333333333333,52.35567,4.892034
458,Gerard Doustraat 88 3V                       , 1072 VW ,30.0,1,2500.0,83.33333333333333,52.35567,4.892034
459,IJdoornlaan 261 F3                       , 1024 KM ,90.0,3,2050.0,22.777777777777786,52.393143,4.955817
460,Mercuriusplein 1 2                       , 1033 AZ ,110.0,4,4500.0,40.90909090909091,52.414552,4.884291
461,Jacob van Arteveldestraat                       , 1061 CK ,87.0,4,3500.0,40.22988505747128,52.376117,4.841067
462,John Franklinstraat                       , 1056 SZ ,52.0,2,2500.0,48.07692307692307,52.37233300000001,4.853828
463,Stadhouderskade                       , 1074 BB ,90.0,3,5000.0,55.55555555555557,52.357901,4.890839
464,Muntplein 2 T                       , 1012 WR ,60.0,2,2200.0,36.66666666666666,52.367405,4.893165
465,Herengracht                       , 1016 BC ,75.0,2,3000.0,40.0,52.365048,4.898317
466,John Franklinstraat 45 hs                       , 1056 SX ,50.0,2,3000.0,60.0,52.372122,4.853745
467,Den Texstraat 7 H                       , 1017 XW ,140.0,5,7000.0,50.0,52.359002,4.893685
468,Osdorper Ban                       , 1069 GA ,84.0,4,2500.0,29.761904761904763,52.359237,4.781176
469,Geelvinckssteeg                       , 1017 BE ,65.0,3,3500.0,53.84615384615386,52.366512,4.891621
470,Jan van Zutphenstraat                       , 1069 RS ,98.0,3,2600.0,26.530612244897966,52.349978,4.799207
471,Maasstraat 29 C                       , 1078 HC ,69.0,2,1900.0,27.53623188405797,52.346471,4.895277
472,Quellijnstraat                       , 1072 XW ,40.0,2,2300.0,57.5,52.356738,4.891071
473,Welnastraat                       , 1096 GJ ,29.0,1,2350.0,81.0344827586207,52.339568,4.919455
474,Sarphatistraat                       , 1018 GK ,135.0,5,7500.0,55.55555555555557,52.360839,4.9067050000000005
475,Jozef Israëlskade 84 H                       , 1073 RB ,75.0,3,4450.0,59.33333333333334,52.349069,4.901956
476,Admiralengracht                       , 1057 ET ,120.0,4,4750.0,39.583333333333336,52.369561,4.857378
477,Linnaeusstraat                       , 1093 EJ ,83.0,3,3150.0,37.951807228915655,52.362938,4.92359
478,Tweede Weteringdwarsstraat 3 H                       , 1017 SR ,66.0,2,3150.0,47.72727272727273,52.361596,4.888533
479,Pieter Calandlaan                       , 1060 TT ,96.0,4,3050.0,31.77083333333333,52.352802,4.803401999999998
480,Brouwersgracht 248 A                       , 1013 HE ,78.0,2,4000.0,51.282051282051285,52.382417,4.885611
481,Brouwersgracht 248 K                       , 1013 HE ,60.0,2,2150.0,35.833333333333336,52.382417,4.885611
482,Ferdinand Bolstraat 113 3                       , 1072 LE ,55.0,2,2150.0,39.09090909090909,52.352988,4.891259
483,Vossiusstraat                       , 1071 AC ,75.0,2,3000.0,40.0,52.360596,4.879137999999998
484,Vechtstraat 122 H                       , 1079 JP ,54.0,3,4000.0,74.07407407407408,52.343203,4.907229
485,Bloemgracht                       , 1016 KP ,50.0,1,3000.0,60.0,52.374193,4.876384
486,Bloemgracht                       , 1016 KP ,40.0,1,2000.0,50.0,52.374193,4.876384
487,Orteliuskade 11 H                       , 1057 AB ,58.0,3,2500.0,43.10344827586207,52.36570800000001,4.85046
488,Singel                       , 1012 WP ,40.0,2,2500.0,62.5,52.375858,4.891292
489,Valeriusstraat 174 2                       , 1075 GH ,181.0,8,5700.0,31.491712707182327,52.353097,4.864439
490,Gerard Doustraat 8 A                       , 1072 VP ,46.0,3,3500.0,76.08695652173913,52.355651,4.891946
491,Jekerstraat 29 II                       , 1078 LW ,68.0,3,3000.0,44.11764705882353,52.345907,4.898057
492,Welnastraat                       , 1096 GJ ,28.0,1,2000.0,71.42857142857143,52.339568,4.919455
493,Marnixkade 14 I                       , 1015 XM ,64.0,3,2150.0,33.59375,52.38302,4.881432
494,Marnixkade 17 II                       , 1015 XN ,60.0,2,2800.0,46.66666666666666,52.382866,4.8813309999999985
495,Bilderdijkkade                       , 1052 RW ,70.0,3,4000.0,57.14285714285714,52.368394,4.869371
496,Osdorper Ban                       , 1069 GA ,115.0,3,3000.0,26.08695652173913,52.359237,4.781176
497,Nieuwe Achtergracht                       , 1018 WT ,65.0,3,2800.0,43.07692307692307,52.362893,4.909739
498,Tweede Constantijn Huygensstraat                       , 1054 CW ,125.0,4,4500.0,36.0,52.363382,4.873156
499,Rustenburgerstraat 138 2                       , 1073 GJ ,55.0,3,3000.0,54.54545454545455,52.352939,4.900974
500,1e Kekerstraat                       , 1104 VA ,90.0,3,2300.0,25.555555555555557,52.314115,4.980872
501,Curaçaostraat                       , 1058 BP ,70.0,3,2500.0,35.714285714285715,52.361198,4.851815
502,Overschiestraat 170 B2*                       , 1062 XK ,117.0,4,4700.0,40.17094017094017,52.348849,4.839201
503,Brouwersgracht 248 A                       , 1013 HE ,78.0,2,4000.0,51.282051282051285,52.382417,4.885611
504,Bijlmerdreef                       , 1103 TW ,80.0,3,2800.0,35.0,52.31557100000001,4.952914
505,Dapperstraat                       , 1093 BS ,55.0,2,2350.0,42.72727272727273,52.362814,4.92739
506,Maassluisstraat                       , 1062 GS ,40.0,2,2500.0,62.5,52.349216,4.836661
507,Bezaanjachtplein                       , 1034 CR ,50.0,2,2500.0,50.0,52.408269,4.915102
508,Loenermark                       , 1025 SV ,75.0,3,2000.0,26.66666666666667,52.399525,4.932976
509,Wilhelminastraat                       , 1054 VW ,60.0,2,2500.0,41.66666666666666,52.361416,4.862565
510,Bankastraat                       , 1094 EA ,55.0,3,2500.0,45.45454545454545,52.36482,4.933322
511,Vechtstraat                       , 1079 JG ,65.0,3,2200.0,33.846153846153854,52.344608,4.906866
512,Korte Leidsedwarsstraat                       , 1017 RD ,65.0,3,2500.0,38.46153846153846,52.363282,4.884683
513,Lumeijstraat                       , 1056 VX ,75.0,3,3000.0,40.0,52.373111,4.861139
514,Keizersgracht                       , 1015 CN ,140.0,3,3500.0,25.0,52.364336,4.892515
515,Ruimzicht                       , 1068 CP ,105.0,3,3000.0,28.57142857142857,52.36170300000001,4.809092
516,Bert Haanstrakade 182                       , 1087 DK ,110.0,2,4450.0,40.45454545454545,52.359813,4.995218
517,Hembrugstraat 7 2                       , 1013 WV ,46.0,2,2150.0,46.73913043478261,52.391917,4.877115
518,Jesse Owenshof                       , 1034 WT ,72.0,3,2000.0,27.777777777777786,52.403798,4.919943
519,Bernard Zweerskade 20 III                       , 1077 VA ,145.0,5,4650.0,32.06896551724138,52.34502,4.877287
520,Tweede Kostverlorenkade 132 2                       , 1053 SE ,50.0,3,3500.0,70.0,52.364034,4.860067
521,Waalstraat                       , 1079 DP ,55.0,2,2800.0,50.90909090909091,52.344337,4.900403
522,Th. J. Lammerslaan 35                       , 1064 DH ,80.0,3,3000.0,37.5,52.372176,4.818927
523,Marnixstraat                       , 1016 XV ,65.0,2,4000.0,61.53846153846154,52.365369,4.880152
524,Pieter Vlamingstraat 18 III                       , 1093 AD ,80.0,4,2800.0,35.0,52.364402,4.924456
525,Raadhuisstraat 19 II                       , 1016 DB ,35.0,2,2800.0,80.0,52.373213,4.887668
526,Brouwersgracht 248 B                       , 1013 HE ,62.0,2,2800.0,45.161290322580655,52.382417,4.885611
527,Gerard Doustraat 8 B                       , 1072 VP ,46.0,3,3500.0,76.08695652173913,52.355651,4.891946
528,Plantage Doklaan 42 D                       , 1018 CN ,19.0,1,2350.0,123.68421052631581,52.368023,4.912667
529,Overschiestraat 170 B17                       , 1062 XK ,112.0,4,4350.0,38.839285714285715,52.348849,4.839201
530,Westerdoksdijk                       , 1013 BX ,62.0,2,2500.0,40.32258064516129,52.386837,4.892743
531,Esplanade de Meer 158                       , 1098 WP ,96.0,3,2500.0,26.04166666666667,52.344765,4.950871
532,Van Kinsbergenstraat 80                       , 1057 PT ,53.0,2,3500.0,66.0377358490566,52.36864600000001,4.858235
533,Faas Wilkesstraat 225                       , 1095 MD ,67.0,3,2150.0,32.089552238805965,52.37289000000001,4.968642
534,Kloveniersburgwal 121 B                       , 1011 KC ,70.0,3,4050.0,57.85714285714285,52.368434,4.896825
535,Nachtwachtlaan 187                       , 1058 EG ,59.0,2,2150.0,36.440677966101696,52.36012,4.843505
536,Hoofdweg 95 B                       , 1058 BA ,65.0,3,2800.0,43.07692307692307,52.362178,4.85291
537,Lindengracht 29 2                       , 1015 KB ,41.0,2,2000.0,48.780487804878035,52.3804,4.886911
538,Derde Helmersstraat 72 1                       , 1054 BL ,67.0,2,3000.0,44.77611940298507,52.364811,4.875253
539,Ehrlichstraat 10 2                       , 1098 SB ,70.0,3,2150.0,30.714285714285715,52.350134,4.942012
540,Termini 443                       , 1025 XM ,77.0,3,3000.0,38.96103896103896,52.401761,4.9340160000000015
541,Herenstraat 20                       , 1015 CB ,67.0,2,3500.0,52.23880597014925,52.377245,4.888871
542,Welnastraat                       , 1096 GJ ,32.0,1,2000.0,62.5,52.339568,4.919455
543,Muntplein 2 G                       , 1012 WR ,64.0,2,1700.0,26.5625,52.367405,4.893165
544,Van Nijenrodeweg                       , 1082 HG ,86.0,3,2800.0,32.55813953488372,52.327461,4.858417
545,Govert Flinckstraat                       , 1072 EG ,56.0,2,4000.0,71.42857142857143,52.355581,4.895827
546,Nieuwe Achtergracht 97 HS                       , 1018 WP ,55.0,3,4000.0,72.72727272727273,52.363085,4.909554
547,Martelaarsgracht 9 IV                       , 1012 TN ,51.0,2,3500.0,68.62745098039215,52.377762,4.896516
548,Bloedstraat 22 II                       , 1012 BS ,50.0,2,2500.0,50.0,52.372795,4.8994339999999985
549,Rozenboomsteeg 8 I                       , 1012 PR ,81.0,3,4000.0,49.382716049382715,52.369236,4.890708
550,Kromme-Mijdrechtstraat                       , 1079 KR ,60.0,2,3500.0,58.33333333333334,52.347187,4.908138
551,Brouwersgracht 248 B                       , 1013 HE ,62.0,2,2800.0,45.161290322580655,52.382417,4.885611
552,Blasiusstraat                       , 1091 CL ,61.0,3,3000.0,49.18032786885247,52.357332,4.912146
553,Stadhouderskade 124 G                       , 1074 AV ,37.0,1,2350.0,63.51351351351353,52.357737,4.899613
554,Tweede Bloemdwarsstraat 1 B                       , 1016 LL ,55.0,4,2500.0,45.45454545454545,52.373738,4.879633
555,Julius Pergerstraat 61                       , 1087 KN ,80.0,3,2800.0,35.0,52.352025,5002068.0
556,Albert Cuypstraat 132 1                       , 1073 BJ ,36.0,2,3500.0,97.22222222222223,52.35543300000001,4.893504
557,Marnixstraat 54 HL                       , 1015 VT ,31.0,2,2350.0,75.80645161290323,52.380642,4.880299
558,Albert Cuypstraat 132 4                       , 1073 BJ ,28.0,2,3500.0,125.0,52.35543300000001,4.893504
559,Ferdinand Bolstraat                       , 1072 LB ,66.0,3,5500.0,83.33333333333333,52.350566,4.891676
560,Overschiestraat 170 B9*                       , 1062 XK ,77.0,3,2600.0,33.76623376623377,52.348849,4.839201
561,Overschiestraat 170 B19*                       , 1062 XK ,77.0,3,2600.0,33.76623376623377,52.348849,4.839201
562,Swammerdamstraat                       , 1091 RW ,65.0,3,3050.0,46.92307692307693,52.357744,4.907689
563,Overschiestraat 170 B10*                       , 1062 XK ,77.0,3,2600.0,33.76623376623377,52.348849,4.839201
564,Singel                       , 1012 VG ,48.0,2,2150.0,44.79166666666666,52.375858,4.891292
565,Jan Smitstraat                       , 1069 SZ ,95.0,3,3000.0,31.578947368421048,52.351232,4.800521
566,Benedenlangs 17                       , 1025 KB ,55.0,2,1950.0,35.45454545454545,52.396272,4.931381
567,Prinsengracht 657 1                       , 1016 HV ,45.0,2,2300.0,51.111111111111114,52.367072,4.882803
568,Groenburgwal                       , 1011 HW ,80.0,3,3650.0,45.625,52.368714,4.8979620000000015
569,Van Nijenrodeweg                       , 1082 HV ,87.0,3,3500.0,40.22988505747128,52.327461,4.858417
570,Overschiestraat 170 C6*                       , 1062 XK ,74.0,3,1800.0,24.324324324324326,52.348849,4.839201
571,Singel                       , 1012 WJ ,82.0,4,4000.0,48.780487804878035,52.375858,4.891292
572,Rustenburgerstraat                       , 1073 GJ ,53.0,3,3000.0,56.60377358490565,52.35135,4.890665
573,Jan Vrijmanstraat 345                       , 1087 NB ,109.0,3,3000.0,27.522935779816518,52.346241,5009875.0
574,Vondelstraat 122 C                       , 1054 GS ,70.0,2,3500.0,50.0,52.361242,4.873078
575,Brouwersgracht 248 A                       , 1013 HE ,78.0,2,4000.0,51.282051282051285,52.382417,4.885611
576,Koggestraat 8 B                       , 1012 TA ,68.0,2,2800.0,41.1764705882353,52.377561,4.893508
577,Daniël Stalpertstraat                       , 1072 XL ,67.0,3,3500.0,52.23880597014925,52.35634,4.887791
578,Orteliusstraat 349 I                       , 1056 PC ,55.0,2,2500.0,45.45454545454545,52.374238,4.846817
579,Joos Banckersplantsoen 85                       , 1056 LD ,130.0,3,4500.0,34.615384615384606,52.376381,4.855514
580,Westerkade                       , 1015 XE ,87.0,3,3000.0,34.48275862068966,52.375877,4.87786
581,Paramaribostraat 57 2                       , 1058 VG ,108.0,4,3500.0,32.407407407407405,52.360826,4.854189
582,Wamelplein                       , 1106 DP ,60.0,2,2500.0,41.66666666666666,52.299537,4.987297
583,Graafschapstraat                       , 1079 PE ,55.0,2,1950.0,35.45454545454545,52.339456,4.894278
584,De Lairessestraat                       , 1071 PB ,100.0,3,3650.0,36.5,52.353958,4.873075
585,Henri Zagwijnstraat 2 1                       , 1077 XP ,72.0,3,2200.0,30.555555555555557,52.342394,4.868703
586,Boeninlaan                       , 1102 TK ,56.0,2,2500.0,44.64285714285715,52.3216,4.941808
587,Nassaukade 302 1                       , 1053 LN ,45.0,2,2350.0,52.22222222222222,52.374679,4.81803
588,Kolfschotenstraat 324                       , 1104 PG ,50.0,2,2500.0,50.0,52.315496,4.966821
589,Omval 259 PP                       , 1096 HR ,80.0,3,3150.0,39.375,52.344263,4.915993
590,Kloveniersburgwal 77 C                       , 1011 KA ,125.0,3,3650.0,29.2,52.369562,4.897884
591,Fritz Conijnstraat                       , 1063 CC ,58.0,3,2800.0,48.27586206896552,52.384367,4.836106
592,Koningineg 188 bv                       , 1075 EJ ,180.0,6,4700.0,26.11111111111111,52.307398,4.946739
593,Staringplein                       , 1054 VK ,60.0,3,4000.0,66.66666666666667,52.360417,4.86301
594,Brouwersgracht 248 A                       , 1013 HE ,78.0,2,4000.0,51.282051282051285,52.382417,4.885611
595,Brouwersgracht 248 C                       , 1013 HE ,78.0,2,3000.0,38.46153846153846,52.382417,4.885611
596,Van Hogendorpstraat 155 1                       , 1051 BN ,60.0,2,2000.0,33.333333333333336,52.38294000000001,4.873399
597,Van Ostadestraat 238 3                       , 1073 TV ,90.0,3,3050.0,33.888888888888886,52.352805,4.896865
598,Carnapstraat                       , 1062 KT ,92.0,3,3500.0,38.04347826086956,52.354139,4.839292
599,Koggestraat                       , 1012 TA ,92.0,3,5000.0,54.34782608695652,52.377485,4.893503
600,Singel                       , 1016 AK ,85.0,2,4200.0,49.411764705882355,52.375858,4.891292
601,Govert Flinckstraat                       , 1074 CA ,55.0,2,3000.0,54.54545454545455,52.355581,4.895827
602,Fokke Simonszstraat 65 B2                       , 1017 TE ,40.0,2,2150.0,53.75,52.360258,4.895212
603,Gerard Douplein 19 H                       , 1073 XE ,105.0,4,3500.0,33.333333333333336,52.356146,4.893219
604,Maassluisstraat                       , 1062 GS ,40.0,1,2500.0,62.5,52.349216,4.836661
605,Eva Besnyöstraat                       , 1087 KR ,90.0,3,3000.0,33.333333333333336,52.34908400000001,5009566.0
606,Van Gentstraat                       , 1055 PC ,70.0,3,3000.0,42.857142857142854,52.383796,4.851579
607,Govert Flinckstraat                       , 1074 CA ,55.0,2,3000.0,54.54545454545455,52.355581,4.895827
608,Spijkerkade                       , 1021 JS ,30.0,1,1950.0,65.0,52.38487,4.921021
609,Spuistraat                       , 1012 SP ,45.0,2,2850.0,63.33333333333334,52.37056,4.889144
610,Spijkerkade                       , 1021 JS ,30.0,1,1950.0,65.0,52.38487,4.921021
611,Weteringschans 41 A                       , 1017 RW ,120.0,3,4500.0,37.5,52.361969,4.885255
612,Kuiperssteeg                       , 1012 HR ,75.0,2,2500.0,33.333333333333336,52.369903,4.893814
613,Nijenburg 8                       , 1081 GG ,56.0,2,3500.0,62.5,52.32845,4.865785
614,Valschermkade                       , 1059 CD ,18.0,1,2000.0,111.11111111111113,52.342239,4.845758999999998
615,Bloemgracht 110 B                       , 1015 TN ,103.0,4,4000.0,38.83495145631068,52.374663,4.879868
616,Waverstraat                       , 1079 VL ,55.0,2,3000.0,54.54545454545455,52.346014,4.908976
617,Erich Salomonstraat                       , 1087 GT ,90.0,3,2500.0,27.777777777777786,52.357277,4.996446
618,Van der Hoopstraat                       , 1051 VE ,50.0,2,3500.0,70.0,52.384355,4.8741900000000005
619,Brouwersgracht 248 C                       , 1013 HE ,78.0,2,3000.0,38.46153846153846,52.382417,4.885611
620,Brouwersgracht 248 F                       , 1013 HE ,62.0,2,2500.0,40.32258064516129,52.382417,4.885611
621,Loosduinenstraat 100                       , 1062 EG ,100.0,3,3150.0,31.5,52.351196,4.838119
622,Leidsegracht 82 F                       , 1016 CR ,105.0,3,6200.0,59.04761904761904,52.366025,4.881715
623,Fregelaan 15                       , 1062 KK ,93.0,3,2000.0,21.505376344086017,52.352849,4.837258
624,Hogewerf 133                       , 1082 NC ,81.0,3,2000.0,24.691358024691358,52.333683,4.880718
625,Samosstraat 30                       , 1060 TA ,14.0,1,710.0,50.714285714285715,52.345654,4.791809
626,Rinus Michelslaan 221                       , 1061 MB ,67.0,3,2150.0,32.089552238805965,52.373158,4.838783
627,Bloemstraat                       , 1016 LJ ,86.0,3,4750.0,55.23255813953488,52.373799,4.879824
628,De Lairessestraat                       , 1071 PL ,92.0,3,4000.0,43.47826086956522,52.352568,4.867877
629,Van Spilbergenstraat                       , 1057 RK ,70.0,3,3000.0,42.857142857142854,52.367038,4.851559
630,John Franklinstraat                       , 1056 SX ,54.0,2,2000.0,37.03703703703704,52.37233300000001,4.853828
631,Prins Hendrikkade                       , 1011 TB ,140.0,5,7000.0,50.0,52.378884,4.895995
632,Van Breestraat                       , 1071 ZG ,70.0,3,5000.0,71.42857142857143,52.356006,4.873316
633,Elisabeth Wolffstraat                       , 1053 TR ,107.0,5,3000.0,28.03738317757009,52.369781,4.867401
634,Beethovenstraat 151 1                       , 1077 JD ,73.0,3,3500.0,47.94520547945206,52.342747,4.877621
635,Overtoom 403 II                       , 1054 JP ,63.0,3,3150.0,50.0,52.359224,4.861768
636,Rosmarijnsteeg 15                       , 1012 RP ,60.0,2,2500.0,41.66666666666666,52.370308,4.88933
637,Veerstraat 8 H                       , 1075 ST ,95.0,3,4500.0,47.368421052631575,52.40802,4.933818
638,Kinderdijkstraat 76 II                       , 1079 GN ,55.0,3,2500.0,45.45454545454545,52.341891,4.902768
639,Vlakkerweg 97                       , 1033 DZ ,75.0,3,2150.0,28.66666666666667,52.40472000000001,4.899553
640,Tweede Hugo de Grootstraat 28 A                       , 1052 LD ,60.0,3,2500.0,41.66666666666666,52.374596,4.873628
641,Van Breestraat                       , 1071 ZP ,200.0,7,9000.0,45.0,52.356006,4.873316
642,Stephensonstraat 20 C                       , 1097 BB ,127.0,3,3150.0,24.80314960629921,52.350337,4.919641
643,Gaasterlandstraat 158                       , 1079 RH ,64.0,2,3000.0,46.875,52.33791400000001,4.895529
644,Fregelaan 121                       , 1062 KM ,100.0,3,2450.0,24.5,52.35282,4.838844
645,Gaasterlandstraat 174                       , 1079 RH ,89.0,3,2800.0,31.460674157303373,52.337834,4.89551
646,Eemlandstraat 13                       , 1079 RM ,60.0,2,2000.0,33.333333333333336,52.33808300000001,4.895741
647,Gustav Mahlerlaan 679                       , 1082 MK ,93.0,3,3500.0,37.63440860215053,52.336121,4.8709370000000005
648,Gerard Doustraat                       , 1072 VL ,46.0,2,4000.0,86.95652173913044,52.355304,4.8898220000000014
649,Brouwersgracht 248 K                       , 1013 HE ,60.0,2,2150.0,35.833333333333336,52.382417,4.885611
650,Brouwersgracht 248 A                       , 1013 HE ,78.0,2,4000.0,51.282051282051285,52.382417,4.885611
651,Pieter Lastmankade                       , 1075 KJ ,62.0,3,3150.0,50.806451612903224,52.347521,4.856877
652,Hoofddorpplein 10 II                       , 1058 PD ,55.0,2,2150.0,39.09090909090909,52.3514,4.850618
653,Kerkstraat                       , 1017 JA ,65.0,3,4500.0,69.23076923076923,52.362923,4.898906
654,Gerrit van der Veenstraat                       , 1077 DN ,68.0,3,4450.0,65.44117647058823,52.348818,4.877203
655,Eerste Jan van der Heijdenstraat 34 B                       , 1072 TV ,70.0,3,4500.0,64.28571428571429,52.352875,4.8879410000000005
656,Laurierstraat 75 F                       , 1016 PJ ,32.0,2,2000.0,62.5,52.371932,4.880223
657,Wedderborg 5                       , 1082 SV ,70.0,2,3500.0,50.0,52.334237,4.8738160000000015
658,Nieuwe Leliestraat 153 1                       , 1015 HC ,40.0,2,2500.0,62.5,52.374721,4.87859
659,Willem de Zwijgerlaan 353 2                       , 1055 RB ,50.0,2,2000.0,40.0,52.382257,4.8570449999999985
660,Amstelveenseweg 71 3                       , 1075 VV ,70.0,4,4450.0,63.57142857142857,52.353581,4.8560370000000015
661,Tugelaweg 71 1                       , 1091 VM ,54.0,3,2500.0,46.2962962962963,52.355142,4.919181
662,Laurierstraat 75 G                       , 1016 PJ ,28.0,2,2000.0,71.42857142857143,52.371932,4.880223
663,Van Nijenrodeweg 546                       , 1082 HS ,90.0,3,2800.0,31.11111111111111,52.32751500000001,4.873996
664,Eerste Jacob van Campenstraat                       , 1072 BH ,60.0,2,3000.0,50.0,52.357483,4.888775
665,Djambistraat 44 1                       , 1094 BB ,55.0,3,3000.0,54.54545454545455,52.364723,4.9378720000000005
666,Lindengracht                       , 1015 KN ,60.0,3,3500.0,58.33333333333334,52.380583,4.886718
667,Loenermark                       , 1025 SB ,80.0,4,2500.0,31.25,52.399525,4.932976
668,Spuistraat 3 F15                       , 1012 SP ,60.0,2,2000.0,33.333333333333336,52.369254,4.888593
669,Prinsengracht                       , 1017 KH ,45.0,2,3000.0,66.66666666666667,52.362122,4.898975
670,Singel                       , 1012 WL ,70.0,2,3000.0,42.857142857142854,52.375858,4.891292
671,Willem de Zwijgerlaan 108 H                       , 1056 JV ,50.0,2,2000.0,40.0,52.373541,4.863713
672,Paardekraalstraat 2 4                       , 1092 JB ,68.0,3,3000.0,44.11764705882353,52.355262,4.924596
673,Sumatrastraat 60 4                       , 1094 NG ,53.0,2,3500.0,66.0377358490566,52.362864,4.9356589999999985
674,Fokke Simonszstraat                       , 1017 TE ,72.0,2,3650.0,50.694444444444436,52.360304,4.893629
675,Westerdok 198                       , 1013 BH ,90.0,3,2800.0,31.11111111111111,52.383512,4.891532
676,Brouwersgracht 248 B                       , 1013 HE ,62.0,2,2800.0,45.161290322580655,52.382417,4.885611
677,Kromme-Mijdrechtstraat                       , 1079 KR ,60.0,2,3500.0,58.33333333333334,52.347187,4.908138
678,Haardstee 95                       , 1102 NE ,65.0,2,1950.0,30.0,52.311192,4.952168
679,Huidekoperstraat 25 A                       , 1017 ZL ,72.0,3,3150.0,43.75,52.358804,4.898062
680,Rozengracht 216 1                       , 1016 NL ,40.0,2,2350.0,58.75,52.37261,4.876837
681,Fokke Simonszstraat                       , 1017 TE ,82.0,2,4500.0,54.878048780487795,52.360304,4.893629
682,Funenpark 320                       , 1018 AK ,75.0,2,2800.0,37.333333333333336,52.36905,4.931837000000002
683,Nieuwe Uilenburgerstraat 108                       , 1011 LX ,115.0,2,4450.0,38.69565217391305,52.370108,4.903766
684,Van Leijenberghlaan 113 A                       , 1082 GD ,116.0,4,4300.0,37.06896551724138,52.327576,4.879746
685,Olympiaweg 72 1                       , 1076 XD ,48.0,2,3000.0,62.5,52.347438,4.860969
686,Nieuwe Herengracht                       , 1011 SG ,76.0,3,3500.0,46.05263157894736,52.365993,4.903332
687,Lederambachtstraat                       , 1069 HK ,80.0,4,4450.0,55.625,52.356395,4.795185
688,Bolestein 546                       , 1081 EJ ,88.0,3,2800.0,31.818181818181817,52.324934000000006,4.859314
689,Seranggracht                       , 1019 PM ,90.0,3,2200.0,24.44444444444445,52.377829,4.932932
690,Ruysdaelkade 113 a                       , 1072 AN ,55.0,2,2800.0,50.90909090909091,52.354939,4.887183
691,Fagelstraat 71 B                       , 1052 EZ ,66.0,3,2500.0,37.87878787878788,52.380101,4.875811
692,Oeverpad 431                       , 1068 PM ,106.0,3,3000.0,28.301886792452827,52.364502,4.808279
693,Sumatrakade 1499                       , 1019 RS ,110.0,4,3050.0,27.72727272727273,52.379533,4.923388
694,Keizersgracht 141 B                       , 1015 CK ,115.0,4,2950.0,25.65217391304348,52.375863,4.88685
695,Brouwersgracht 6 I                       , 1013 GW ,45.0,2,2500.0,55.55555555555557,52.379719,4.889313
696,Tielstraat 56                       , 1107 RA ,70.0,3,2300.0,32.857142857142854,52.291947,4.968978
697,Foeliedwarsstraat 62 1                       , 1011 TP ,87.0,3,3000.0,34.48275862068966,52.37055,4.910927
698,Brouwersgracht 248 C                       , 1013 HE ,78.0,2,3000.0,38.46153846153846,52.382417,4.885611
699,Michelangelostraat 81 I                       , 1077 BX ,60.0,2,2000.0,33.333333333333336,52.345723,4.871555
700,Van Walbeeckstraat                       , 1058 CM ,57.0,3,2300.0,40.35087719298246,52.36147800000001,4.851012
701,Frans Halsstraat                       , 1072 BS ,50.0,3,3000.0,60.0,52.356556,4.888733
702,Rijnstraat                       , 1078 RD ,57.0,3,2800.0,49.122807017543856,52.348776,4.9042010000000005
703,Veerstraat                       , 1075 SZ ,50.0,2,2500.0,50.0,52.35139,4.853946
704,Martelaarsgracht                       , 1012 TR ,70.0,3,3500.0,50.0,52.377883,4.896631
705,Welnastraat                       , 1096 GJ ,28.0,1,2500.0,89.2857142857143,52.339568,4.919455
706,Gerrit van der Veenstraat 161 H                       , 1077 EA ,162.0,6,8000.0,49.382716049382715,52.348569,4.868924
707,Gerrit van der Veenstraat 127 B                       , 1077 DW ,174.0,5,7600.0,43.678160919540225,52.34867,4.871315
708,Ferdinand Bolstraat                       , 1072 LB ,66.0,3,5500.0,83.33333333333333,52.350566,4.891676
709,Jacob van Lennepkade 44 3                       , 1053 ML ,90.0,2,3050.0,33.888888888888886,52.366028,4.874035
710,Tweede Jan Steenstraat 75 F                       , 1074 CL ,27.0,1,2350.0,87.03703703703705,52.402014,4.935554
711,Derde Schinkelstraat                       , 1075 TM ,80.0,3,2500.0,31.25,52.352868,4.8546010000000015
712,Kribbestraat 48 2                       , 1079 WV ,55.0,3,3200.0,58.18181818181818,52.341104,4.903613
713,Eef Kamerbeekstraat 674                       , 1095 MP ,48.0,1,2000.0,41.66666666666666,52.371136,4.9676589999999985
714,Eef Kamerbeekstraat 654                       , 1095 MP ,70.0,2,2600.0,37.142857142857146,52.371261,4.967935
715,Geuzenstraat                       , 1056 JZ ,62.0,3,2500.0,40.32258064516129,52.372279,4.8646379999999985
716,Michelangelostraat 116                       , 1077 CH ,120.0,3,5700.0,47.5,52.344975,4.87127
717,Dever 16                       , 1082 BJ ,65.0,3,2150.0,33.07692307692308,52.324899,4.869744
718,Willem de Zwijgerlaan 207 2                       , 1056 JP ,64.0,3,2150.0,33.59375,52.376907,4.86266
719,Nassaukade                       , 1052 CK ,52.0,2,3900.0,75.0,52.379572,4.878407
720,Joan Muyskenweg 6 B8                       , 1096 CJ ,73.0,3,2500.0,34.246575342465746,52.33625900000001,4.913532
721,Keizersgracht 210 II                       , 1016 DX ,80.0,2,2800.0,35.0,52.373542,4.8845800000000015
722,Prinsengracht 193 D                       , 1015 DS ,140.0,3,5500.0,39.285714285714285,52.377561,4.886183
723,Brouwersgracht 248 F                       , 1013 HE ,62.0,2,2500.0,40.32258064516129,52.382417,4.885611
724,Brouwersgracht 248 C                       , 1013 HE ,78.0,2,3000.0,38.46153846153846,52.382417,4.885611
725,Mary van der Sluisstraat 106                       , 1095 ME ,65.0,2,2500.0,38.46153846153846,52.372573,4.96357
726,Van Nijenrodeweg                       , 1083 EJ ,30.0,1,2500.0,83.33333333333333,52.327461,4.858417
727,Warmoesstraat 46 A                       , 1012 JE ,91.0,3,2950.0,32.41758241758241,52.375554,4.898314
728,Bloemstraat 36 D                       , 1016 LC ,45.0,2,2500.0,55.55555555555557,52.374375,4.8817949999999986
729,Van Boshuizenstraat 167                       , 1083 AV ,80.0,3,2150.0,26.875,52.407387,4.912163
730,Anton Verheijstraat 7 3                       , 1077 KT ,110.0,4,4450.0,40.45454545454545,52.343431,4.875632
731,Kinderdijkstraat 36 1                       , 1079 GK ,56.0,3,3000.0,53.57142857142857,52.343131,4.902813
732,Rokin 128 D                       , 1012 LC ,40.0,2,2350.0,58.75,52.368415,4.892082
733,Kinkerstraat                       , 1053 EL ,44.0,2,3000.0,68.18181818181819,52.367586,4.873204
734,Amstelvlietstraat 540                       , 1096 GG ,80.0,3,2400.0,30.0,52.33893,4.919182
735,Van Spilbergenstraat                       , 1057 PV ,45.0,3,2700.0,60.0,52.367038,4.851559
736,ms. van Riemsdijkweg                       , 1033 RD ,75.0,3,2500.0,33.333333333333336,52.400438,4.8920330000000005
737,Oudezijds Voorburgwal                       , 1012 EM ,80.0,3,4000.0,50.0,52.372452,4.896855
738,Beethovenstraat 138 3                       , 1077 JS ,210.0,6,4650.0,22.142857142857146,52.345789,4.876412
739,Willem de Zwijgerlaan                       , 1056 JT ,50.0,2,1700.0,34.0,52.371166,4.8631980000000015
740,Cabotstraat 17 1                       , 1057 VP ,48.0,3,2350.0,48.95833333333334,52.368158,4.8557739999999985
741,Wijdesteeg 64 *                       , 1012 RN ,50.0,2,2150.0,43.0,52.371757,4.890098
742,Tugelaweg 32 A                       , 1092 VE ,70.0,1,3000.0,42.857142857142854,52.356497,4.92353
743,Saenredamstraat                       , 1072 CH ,35.0,2,2150.0,61.42857142857143,52.355726,4.888708
744,Eef Kamerbeekstraat 88                       , 1095 MP ,45.0,1,2350.0,52.22222222222222,52.373423,4.963585
745,Hageland 120                       , 1066 SB ,77.0,3,3500.0,45.45454545454545,52.345278,4.812051
746,Noorderstraat                       , 1017 TW ,70.0,3,3150.0,45.0,52.361218,4.89377
747,Geldersekade 27 C                       , 1011 EJ ,48.0,2,2000.0,41.66666666666666,52.375441,4.9024160000000006
748,Brouwersgracht 248 C                       , 1013 HE ,78.0,2,3000.0,38.46153846153846,52.382417,4.885611
749,Ceintuurbaan                       , 1074 EB ,60.0,2,2800.0,46.66666666666666,52.354812,4.9010370000000005
750,Joan Melchior Kemperstraat                       , 1051 TS ,39.0,2,2350.0,60.256410256410255,52.385021,4.874594
751,Van Walbeeckstraat 70 ll                       , 1058 CW ,58.0,4,2500.0,43.10344827586207,52.362035,4.851223
752,Prinsengracht 415 E                       , 1016 HM ,125.0,4,6200.0,49.6,52.371055,4.8831690000000005
753,Haarlemmermeerstraat 130 II                       , 1058 KH ,56.0,2,2150.0,38.392857142857146,52.352935,4.850159
754,Saskia van Uijlenburgkade 134                       , 1058 GA ,98.0,3,3500.0,35.714285714285715,52.356496,4.846593
755,Loenermark                       , 1025 TB ,90.0,4,3000.0,33.333333333333336,52.399525,4.932976
756,Van Spilbergenstraat 88 H                       , 1057 RL ,65.0,2,3000.0,46.153846153846146,52.366748,4.851857
757,Zeeburgerstraat                       , 1018 AG ,100.0,3,4500.0,45.0,52.366462,4.925985
758,Herengracht                       , 1016 BE ,50.0,2,2500.0,50.0,52.365048,4.898317
759,Omval                       , 1096 AA ,80.0,3,3500.0,43.75,52.342847,4.919715
760,Sint Willibrordusstraat 20 II                       , 1074 XL ,55.0,2,3000.0,54.54545454545455,52.354662,4.90257
761,Nicolaas Witsenstraat 18 1                       , 1017 ZH ,50.0,2,2500.0,50.0,52.358527,4.896083
762,B. Merkelbachsingel                       , 1022 KE ,70.0,3,2150.0,30.714285714285715,52.405327,4.931657
763,Jacques Veltmanstraat                       , 1065 DB ,85.0,3,2500.0,29.411764705882355,52.351505,4.8309940000000005
764,Lauriergracht                       , 1016 RP ,70.0,2,3650.0,52.14285714285714,52.371294,4.879935
765,Cas Oorthuyskade 374                       , 1087 DP ,98.0,3,3350.0,34.18367346938776,52.361141,4.991874
766,Pieter Cornelisz. Hooftstraat 151 1                       , 1071 BT ,60.0,2,4450.0,74.16666666666667,52.359138,4.8769339999999985
767,Javastraat 104 1                       , 1094 HN ,50.0,3,3000.0,60.0,52.363613,4.9366650000000005
768,Ookmeerweg 7 C                       , 1068 ZX ,124.0,4,2150.0,17.338709677419356,52.365608,4.802832
769,Kuipersstraat                       , 1073 ER ,55.0,3,2500.0,45.45454545454545,52.353543,4.902691
770,Frans van Mierisstraat 69 II                       , 1071 RL ,187.0,5,8000.0,42.78074866310161,52.35429600000001,4.881789
771,Pieter Cornelisz. Hooftstraat                       , 1071 BN ,100.0,3,2950.0,29.5,52.360453,4.8818220000000005
772,Bert Haanstrakade 122                       , 1087 DN ,119.0,3,2300.0,19.32773109243697,52.360517,4.993258999999999
773,Korte Leidsedwarsstraat                       , 1017 PV ,50.0,2,2300.0,46.0,52.363282,4.884683
774,Beethovenstraat                       , 1077 JS ,140.0,4,4500.0,32.142857142857146,52.343825,4.877039
775,Beethovenstraat                       , 1077 JS ,210.0,7,4650.0,22.142857142857146,52.343825,4.877039
776,Kolfschotenstraat                       , 1104 PC ,75.0,3,2150.0,28.66666666666667,52.316973,4.970868
777,Ten Katestraat                       , 1053 CE ,48.0,2,3000.0,62.5,52.366014,4.86771
778,Crynssenstraat                       , 1058 XZ ,58.0,2,2000.0,34.48275862068966,52.362511,4.856253
779,Balistraat                       , 1094 JP ,40.0,2,2500.0,62.5,52.363149,4.935579
780,Uiterwaardenstraat                       , 1079 BS ,51.0,3,3000.0,58.82352941176471,52.342802,4.903116000000002
781,Balistraat 48 H                       , 1094 JN ,49.0,2,2500.0,51.02040816326532,52.36300900000001,4.933793
782,Diezestraat 26 2                       , 1078 JR ,125.0,4,4750.0,38.0,52.345396,4.891738
783,Hebridenlaan 27 C                       , 1060 LS ,83.0,4,4000.0,48.19277108433735,52.347622,4.7935
784,Hebridenlaan 27 A                       , 1060 LS ,66.0,2,1700.0,25.75757575757576,52.347622,4.7935
785,Hebridenlaan 27 B                       , 1060 LS ,53.0,3,2900.0,54.716981132075475,52.347622,4.7935
786,Solitudopad                       , 1096 DR ,40.0,2,2150.0,53.75,52.34126,4.923218
787,Joh.M. Coenenstraat                       , 1071 WH ,100.0,3,3500.0,35.0,52.351412,4.879837
788,Overtoom                       , 1054 HX ,100.0,3,4750.0,47.5,52.361024,4.868881
789,Van Reigersbergenstraat                       , 1052 SX ,70.0,4,3150.0,45.0,52.372566,4.869574
790,Tweede Constantijn Huygensstraat                       , 1054 CR ,75.0,2,2500.0,33.333333333333336,52.363382,4.873156
791,Eerste Weteringdwarsstraat 65 E                       , 1017 TM ,70.0,3,4000.0,57.14285714285714,52.361879,4.889557
792,Singel                       , 1015 AC ,32.0,1,2500.0,78.125,52.375858,4.891292
793,Eerste Tuindwarsstraat 8 I                       , 1015 RV ,45.0,3,2600.0,57.77777777777778,52.3776,4.883638
794,Marnixstraat                       , 1016 XV ,82.0,3,3500.0,42.68292682926829,52.365369,4.880152
795,Overtoom                       , 1054 HV ,74.0,2,4450.0,60.135135135135144,52.361024,4.868881
796,Brouwersgracht 248 B                       , 1013 HE ,62.0,2,2800.0,45.161290322580655,52.382417,4.885611
797,Admiraal De Ruijterweg 77 I                       , 1057 JZ ,50.0,3,2800.0,56.0,52.371324,4.8601269999999985
798,Lange Leidsedwarsstraat 160 1                       , 1017 NP ,45.0,2,2350.0,52.22222222222222,52.363085,4.88577
799,Ceintuurbaan 196 ³                       , 1072 GC ,75.0,3,2600.0,34.666666666666664,52.352118,4.887318
800,Wittgensteinlaan 164                       , 1062 KD ,96.0,3,2400.0,25.0,52.352975,4.835451
801,Rustenburgerstraat                       , 1072 HD ,119.0,4,5000.0,42.01680672268908,52.35135,4.890665
802,Kuipersstraat 149 A7                       , 1073 ER ,50.0,3,2500.0,50.0,52.352971,4.900107
803,Geuzenstraat                       , 1056 KC ,63.0,3,2500.0,39.68253968253968,52.372279,4.8646379999999985
804,Jasonstraat 31 4                       , 1076 KX ,58.0,3,3000.0,51.72413793103448,52.343858,4.860409
805,De Wittenstraat                       , 1052 AT ,45.0,2,2500.0,55.55555555555557,52.383154,4.878522
806,Gustav Mahlerlaan 931                       , 1082 MK ,110.0,3,4000.0,36.36363636363637,52.336452,4.86994
807,Daniël Stalpertstraat                       , 1072 XB ,80.0,3,3500.0,43.75,52.35634,4.887791
808,Valkenburgerstraat                       , 1011 MH ,82.0,3,4300.0,52.4390243902439,52.369578,4.906694
809,Pieter Cornelisz. Hooftstraat                       , 1071 BT ,50.0,2,3500.0,70.0,52.360053,4.879957
810,Kea Boumanstraat                       , 1095 MA ,35.0,1,2350.0,67.14285714285714,52.37441,4.96831
811,Ruysdaelkade 7                       , 1072 AG ,80.0,2,1700.0,21.25,52.359147,4.887532
812,IJburglaan                       , 1086 XT ,100.0,3,3000.0,30.0,52.368507,4.971287
813,Erich Salomonstraat                       , 1087 GT ,81.0,3,3000.0,37.03703703703704,52.357277,4.996446
814,Maarten Harpertszoon Trompstraat 36 3                       , 1056 JB ,116.0,3,3650.0,31.46551724137931,52.371998,4.86216
815,Baden Powellweg                       , 1069 LH ,31.0,1,2000.0,64.51612903225806,52.348469,4.795243
816,Van Ostadestraat                       , 1073 TZ ,54.0,3,3500.0,64.81481481481481,52.353859,4.902028
817,Rozenstraat 183 2                       , 1016 NR ,75.0,3,5000.0,66.66666666666667,52.371969,4.878196
818,Raamstraat 27 1                       , 1016 XL ,60.0,3,3000.0,50.0,52.366112,4.881096
819,Valschermkade                       , 1059 CD ,18.0,1,2000.0,111.11111111111113,52.342239,4.845758999999998
820,Vrouwenmantelstraat                       , 1032 LT ,100.0,5,4500.0,45.0,52.398714,4.9051800000000005
821,Eerste Atjehstraat 43 3                       , 1094 KB ,75.0,2,3000.0,40.0,52.362658,4.933665
822,Ceintuurbaan                       , 1074 EB ,60.0,2,2800.0,46.66666666666666,52.354812,4.9010370000000005
823,Brouwersgracht 248 A                       , 1013 HE ,78.0,2,4000.0,51.282051282051285,52.382417,4.885611
824,Oudezijds Voorburgwal 183 I V                       , 1012 EW ,100.0,3,3500.0,35.0,52.371639,4.895982
825,Van Baerlestraat                       , 1071 AZ ,20.0,2,2300.0,115.0,52.358779,4.878127
826,Rinus Michelslaan                       , 1061 MB ,82.0,3,2500.0,30.48780487804878,52.373158,4.838783
827,Gerard Doustraat 30 2                       , 1072 VR ,28.0,1,1950.0,69.64285714285714,52.355106,4.888268
828,Amstelboulevard 8                       , 1096 HH ,150.0,3,4500.0,30.0,52.343569,4.915355
829,Hoofdweg 232 II                       , 1057 DG ,54.0,3,3500.0,64.81481481481481,52.367156,4.852821
830,Martelaarsgracht 9 3                       , 1012 TN ,61.0,3,4000.0,65.57377049180327,52.377762,4.896516
831,Grubbehoeve 28                       , 1103 GH ,77.0,3,2000.0,25.97402597402597,52.321482,4.976987
832,Leidsestraat                       , 1017 NX ,62.0,3,3000.0,48.38709677419354,52.366381,4.8873440000000015
833,Van der Hoopstraat 130 IV                       , 1051 VN ,50.0,2,2150.0,43.0,52.384194,4.870403
834,Valeriusstraat 177 2                       , 1075 EW ,60.0,2,4450.0,74.16666666666667,52.352026,4.861172
835,Egelantiersstraat                       , 1015 PZ ,45.0,3,2800.0,62.22222222222222,52.376514,4.881611
836,Solebaystraat                       , 1055 ZS ,48.0,3,2500.0,52.08333333333334,52.384963,4.856075
837,Filips van Almondestraat 29 1                       , 1057 ZS ,60.0,3,3000.0,50.0,52.369901,4.857545
838,Beulingstraat 4 E                       , 1017 BA ,75.0,3,5000.0,66.66666666666667,52.368054,4.88755
839,Reyer Anslostraat 9 H                       , 1054 KT ,110.0,4,3500.0,31.818181818181817,52.358508,4.860397
840,Derkinderenstraat                       , 1061 VX ,90.0,3,4000.0,44.444444444444436,52.368663,4.840343
841,Prinsengracht                       , 1016 HK ,60.0,3,3150.0,52.5,52.366089,4.8825379999999985
842,Henrick de Keijserplein                       , 1073 SX ,140.0,5,7000.0,50.0,52.351531,4.89754
843,Koningineg 201 2                       , 1075 CR ,75.0,3,3000.0,40.0,52.366428000000006,4.8729879999999985
844,Alblasstraat                       , 1079 ZK ,50.0,3,2500.0,50.0,52.341924,4.899328
845,Wilhelminastraat 9 II                       , 1054 VT ,52.0,2,2500.0,48.07692307692307,52.361496,4.863297
846,James Wattstraat                       , 1097 DL ,48.0,1,2700.0,56.25,52.35008,4.922676
847,James Wattstraat                       , 1097 DL ,67.0,2,2350.0,35.07462686567164,52.35008,4.922676
848,James Wattstraat                       , 1097 DL ,48.0,1,1650.0,34.375,52.35008,4.922676
849,Kromme-Mijdrechtstraat                       , 1079 KR ,60.0,2,3500.0,58.33333333333334,52.347187,4.908138
850,Waldenlaan 107                       , 1093 NH ,77.0,3,3500.0,45.45454545454545,52.357225,4.929274
851,Haarlemmerstraat                       , 1013 EL ,65.0,3,2500.0,38.46153846153846,52.380313,4.891784
852,Beulingstraat                       , 1017 BA ,35.0,2,2300.0,65.71428571428571,52.367978,4.88753
853,Tussen Meer                       , 1068 GA ,72.0,4,2150.0,29.86111111111111,52.357574,4.79726
854,Nieuwe Herengracht                       , 1011 RM ,50.0,2,2500.0,50.0,52.365993,4.903332
855,Pietersbergweg 207                       , 1105 BM ,39.0,1,2000.0,51.282051282051285,52.298977,4.9559940000000005
856,Johan Huijsenstraat                       , 1087 LC ,81.0,3,3000.0,37.03703703703704,52.350884,5008374.0
857,Bloemstraat                       , 1016 LD ,36.0,2,2150.0,59.72222222222222,52.373799,4.879824
858,Spinakerhof                       , 1034 MS ,76.0,3,2800.0,36.8421052631579,52.409965,4.923213
859,Admiraal De Ruijterweg 107 3                       , 1056 EV ,80.0,3,3500.0,43.75,52.372442,4.859057
860,Van Leijenberghlaan                       , 1082 GM ,90.0,3,3050.0,33.888888888888886,52.335008,4.878591
861,Minervaplein                       , 1077 TH ,70.0,2,5000.0,71.42857142857143,52.346421,4.872554
862,Amsteldijk 41 I                       , 1074 HV ,77.0,3,4500.0,58.441558441558435,52.35506,4.905501
863,Van Eeghenstraat 43 1                       , 1071 EV ,74.0,3,2950.0,39.86486486486485,52.357796,4.87513
864,Keizersgracht                       , 1017 EK ,130.0,3,3150.0,24.23076923076923,52.364035,4.892455
865,Grubbehoeve 827                       , 1103 GZ ,70.0,3,2350.0,33.57142857142857,52.321719,4.977851
866,Schinkelhavenstraat 21 3                       , 1075 VP ,100.0,4,5500.0,55.0,52.354346,4.854252
867,Van Ostadestraat 52 1                       , 1072 TA ,46.0,2,2800.0,60.8695652173913,52.351629,4.888542
868,Mary van der Sluisstraat 274                       , 1095 ME ,95.0,3,3000.0,31.578947368421048,52.373896,4.963413
869,Van Hogendorpstraat 869                       , 1051 CD ,85.0,3,3500.0,41.1764705882353,52.382111,4.8688699999999985
870,Jan Boterenbroodstraat                       , 1019 GC ,70.0,3,2800.0,40.0,52.368135,4.943646
871,Ceintuurbaan                       , 1072 EW ,65.0,2,2500.0,38.46153846153846,52.354812,4.9010370000000005
872,Elisabeth Wolffstraat 74 I                       , 1053 TW ,51.0,3,3500.0,68.62745098039215,52.36898400000001,4.867643
873,Bilderdijkkade 68 II                       , 1053 VN ,40.0,1,2700.0,67.5,52.366928,4.870252
874,Kleiburg                       , 1104 EA ,68.0,3,2300.0,33.823529411764696,52.318351,4.980421
875,Revaleiland                       , 1014 ZG ,81.0,3,2500.0,30.8641975308642,52.392854,4.878787
876,Cabotstraat                       , 1057 VP ,66.0,3,3000.0,45.45454545454545,52.368143,4.855085
877,Brouwersgracht 248 K                       , 1013 HE ,60.0,2,2150.0,35.833333333333336,52.382417,4.885611
878,Brouwersgracht 248 C                       , 1013 HE ,78.0,2,3000.0,38.46153846153846,52.382417,4.885611
879,Jacob van Lennepstraat 37 1                       , 1053 HB ,67.0,2,3500.0,52.23880597014925,52.362636,4.859026
880,Tuinstraat                       , 1015 PK ,40.0,2,2500.0,62.5,52.376982,4.881973
881,Sarphatistraat                       , 1018 GB ,80.0,3,4500.0,56.25,52.360839,4.9067050000000005
882,Hoogte Kadijk                       , 1018 BS ,97.0,3,2000.0,20.61855670103093,52.36822700000001,4.9185
883,Maassluisstraat                       , 1062 GL ,40.0,2,2500.0,62.5,52.349216,4.836661
884,Hoendiepstraat                       , 1079 LW ,32.0,2,2500.0,78.125,52.342346,4.910558999999999
885,Jacob van Lennepkade                       , 1053 NM ,45.0,2,2000.0,44.444444444444436,52.366584,4.875938
886,Duivendrechtsekade                       , 1096 AH ,25.0,1,750.0,30.0,52.338205,4.932423
887,J.M. van der Meylaan                       , 1019 EN ,60.0,3,2000.0,33.333333333333336,52.368147,4.9458160000000015
888,Van Ostadestraat 240 3                       , 1073 TV ,80.0,3,4450.0,55.625,52.352823,4.896953
889,Van Eeghenstraat 43 I                       , 1071 EV ,74.0,3,2950.0,39.86486486486485,52.357799,4.875128
890,Tourniairestraat                       , 1065 KK ,29.0,1,650.0,22.41379310344828,52.355981,4.8240300000000005
891,Tweede Helmersstraat 47 3                       , 1054 CD ,130.0,4,3500.0,26.92307692307693,52.364303,4.87636
892,Ferdinand Bolstraat                       , 1072 LK ,67.0,3,3150.0,47.014925373134325,52.350566,4.891676
893,Herengracht 123 A                       , 1015 BG ,110.0,2,2950.0,26.818181818181817,52.365048,4.898317
894,Spuistraat                       , 1012 VW ,75.0,3,3000.0,40.0,52.37056,4.889144
895,Haarlemmerstraat 3 B                       , 1013 EH ,52.0,2,4000.0,76.92307692307692,52.379816,4.8933800000000005
896,Jacob van Lennepstraat 238 C                       , 1053 KB ,60.0,2,2500.0,41.66666666666666,52.364117,4.864573
897,Plantage Doklaan                       , 1018 CN ,85.0,3,2500.0,29.411764705882355,52.367901,4.9136120000000005
898,Patroclosstraat 28 2                       , 1076 NH ,75.0,3,4000.0,53.33333333333334,52.344639,4.866285
899,Plantage Doklaan                       , 1018 CN ,50.0,3,2500.0,50.0,52.367901,4.9136120000000005
900,Borgerstraat 256 I                       , 1053 RG ,48.0,2,2500.0,52.08333333333334,52.363775,4.860452
901,Van Leijenberghlaan 391 I                       , 1082 GK ,80.0,3,3050.0,38.125,52.325662,4.879915
902,Valkenburgerstraat 134 G                       , 1011 NA ,95.0,3,3000.0,31.578947368421048,52.369616,4.90635
903,Brouwersgracht 248 A                       , 1013 HE ,78.0,2,4000.0,51.282051282051285,52.382417,4.885611
904,Brouwersgracht 248 C                       , 1013 HE ,78.0,2,3000.0,38.46153846153846,52.382417,4.885611
905,Prinsengracht                       , 1016 GX ,92.0,3,7000.0,76.08695652173913,52.362122,4.898975
906,Wolbrantskerkweg                       , 1069 DA ,132.0,5,4200.0,31.818181818181817,52.356924,4.797553
907,Van Nijenrodeweg 57                       , 1083 ED ,30.0,1,2750.0,91.66666666666669,52.327604,4.884323
908,Crynssenstraat 61 2                       , 1058 XV ,70.0,3,3000.0,42.857142857142854,52.363441,4.855978
909,Nieuwendijk 59 E                       , 1012 MB ,85.0,2,2500.0,29.411764705882355,52.377448,4.8966080000000005
910,Lomanstraat                       , 1075 PS ,70.0,3,3650.0,52.14285714285714,52.351284,4.859917
911,Hildebrandstraat                       , 1053 WB ,70.0,3,2200.0,31.42857142857143,52.364429,4.865061
912,Arent Janszoon Ernststraat                       , 1083 JN ,110.0,4,4500.0,40.90909090909091,52.331795,4.889087
913,IJburglaan 732                       , 1087 CE ,120.0,3,4450.0,37.083333333333336,52.356326,4.9925190000000015
914,Overtoom 332 2                       , 1054 JE ,70.0,2,2500.0,35.714285714285715,52.36072,4.866624
915,George Gershwinlaan 476                       , 1082 MT ,85.0,2,2150.0,25.294117647058826,52.336098,4.870399
916,Loenermark 248                       , 1025 SX ,80.0,3,2000.0,25.0,52.398296,4.929289
917,Ilperveldstraat                       , 1024 PG ,104.0,4,3000.0,28.84615384615385,52.39595900000001,4.945744
918,Herengracht 311                       , 1016 AV ,62.0,2,2000.0,32.25806451612903,52.364436,4.802157
919,Baarsstraat                       , 1075 RT ,60.0,3,3150.0,52.5,52.350538,4.854327
920,Kerkstraat 9 2                       , 1017 GA ,60.0,3,2350.0,39.16666666666666,52.366198,4.88434
921,Wiborgeiland                       , 1014 ZC ,134.0,4,6200.0,46.268656716417894,52.393456,4.87726
922,Kattenlaan 6 B                       , 1054 KA ,55.0,3,3000.0,54.54545454545455,52.359686,4.865591
923,Brouwersgracht 248 B                       , 1013 HE ,62.0,2,2800.0,45.161290322580655,52.382417,4.885611
924,Mary van der Sluisstraat 306                       , 1095 ME ,74.0,3,2800.0,37.83783783783785,52.374362,4.963535
925,Hoofddorpweg 10 4                       , 1058 PB ,71.0,3,3500.0,49.29577464788731,52.351055,4.851273
926,Groenhoven                       , 1103 NB ,97.0,1,2150.0,22.164948453608247,52.327431,4.9768089999999985
927,Jan van Duivenvoordestraat                       , 1067 XN ,59.0,3,2500.0,42.3728813559322,52.378549,4.802617
928,Tussen Meer                       , 1068 EZ ,85.0,3,2150.0,25.294117647058826,52.357574,4.79726
929,Openhartsteeg                       , 1017 BD ,42.0,2,2000.0,47.61904761904761,52.366554,4.8912580000000005
930,Oostenburgervoorstraat 284                       , 1018 MR ,72.0,2,2500.0,34.72222222222222,52.369736,4.925428
931,Amstelveenseweg                       , 1075 XK ,70.0,3,4000.0,57.14285714285714,52.338422,4.857263
932,Amstelveenseweg                       , 1081 JM ,155.0,5,4650.0,30.0,52.338422,4.857263
933,Ferdinand Bolstraat                       , 1072 LC ,42.0,1,2800.0,66.66666666666667,52.351673,4.891393
934,Termini                       , 1025 XM ,75.0,3,2500.0,33.333333333333336,52.40212,4.931695
935,Papaverweg                       , 1032 KH ,48.0,2,2500.0,52.08333333333334,52.394471,4.912083999999999
936,Groenburgwal                       , 1011 HW ,60.0,2,4450.0,74.16666666666667,52.368714,4.8979620000000015
937,Termini 319                       , 1025 XM ,62.0,2,2450.0,39.516129032258064,52.401679,4.93394
938,Termini 303                       , 1025 XM ,62.0,2,2450.0,39.516129032258064,52.401667,4.933932
939,Albert Neuhuysstraat                       , 1058 SE ,67.0,3,3000.0,44.77611940298507,52.355552,4.85083
940,Nieuwevaartweg                       , 1019 AL ,49.0,2,2350.0,47.95918367346939,52.367984,4.9535860000000005
941,Oostzaanstraat 101                       , 1013 WG ,53.0,3,3000.0,56.60377358490565,52.391064,4.873261
942,Pieter de Hoochstraat                       , 1071 EE ,90.0,3,3500.0,38.888888888888886,52.357393,4.8851010000000015
943,Spuistraat 42 2                       , 1012 TV ,36.0,2,1300.0,36.111111111111114,52.37638,4.892596
944,Kastelenstraat 241 1                       , 1082 EG ,82.0,4,3000.0,36.58536585365854,52.325746,4.872213
945,IJburglaan 767                       , 1087 CH ,85.0,3,2300.0,27.058823529411764,52.357313,4.991937
946,Stadionkade 42 4                       , 1077 VR ,120.0,4,3650.0,30.41666666666667,52.34449,4.869119
947,Foeliestraat 4 E                       , 1011 TM ,59.0,3,2350.0,39.83050847457627,52.371074,4.909889
