,Address,Postcode,Size in m²,Rooms,Prize in €,Price/Sqm,Latitude,Longitude
1,Brouwersgracht 248 F                       , 1013 HE ,62.0,2,2500.0,40.32258064516129,52.382417,4.885611
2,Krijn Breurstraat 7                       , 1064 SX ,94.0,3,3000.0,31.914893617021278,52.378049,4.823713
3,Cliffordstraat                       , 1051 GS ,50.0,2,2000.0,40.0,52.383771,4.871866000000001
4,Baarsjesweg                       , 1058 AG ,60.0,3,4000.0,66.66666666666667,52.367455,4.862214
6,Jan Olphert Vaillantlaan                       , 1086 ZA ,150.0,4,2500.0,16.666666666666668,52.362457,4.979589
7,Koningin Wilhelminaplein                       , 1062 HJ ,62.0,2,2150.0,34.67741935483871,52.356321,4.838934
8,Jan van Zutphenstraat 779                       , 1069 RS ,98.0,2,3500.0,35.714285714285715,52.349665,4.797743
9,James Wattstraat                       , 1097 DL ,62.0,2,3500.0,56.45161290322582,52.35008,4.922676
10,Dintelstraat                       , 1078 VX ,80.0,3,3950.0,49.375,52.341869,4.89344
11,Van Eeghenstraat                       , 1071 GE ,130.0,5,4700.0,36.153846153846146,52.356458,4.869726
12,Arent Janszoon Ernststraat                       , 1082 LD ,30.0,1,2500.0,83.33333333333333,52.332122,4.888758
13,Mauvestraat 47 I                       , 1073 RH ,60.0,3,2500.0,41.66666666666666,52.349872999999995,4.903033
14,Lauriergracht                       , 1016 RK ,90.0,5,5000.0,55.55555555555557,52.371294,4.879935
15,Kuipersstraat                       , 1073 ER ,40.0,1,2150.0,53.75,52.353543,4.902691
16,De Wittenkade 97 A                       , 1052 AG ,61.0,3,3050.0,50.0,52.38313,4.877624
17,Millingenhof 233                       , 1106 KP ,125.0,4,2000.0,16.0,52.295758,4.969133
18,Eerste Helmersstraat                       , 1054 DS ,58.0,3,3500.0,60.3448275862069,52.363890999999995,4.876734
19,Rooseveltlaan 167 III                       , 1079 AM ,118.0,4,5000.0,42.3728813559322,52.343066,4.897824
20,Geelvinckssteeg 6 3                       , 1017 BE ,85.0,3,2500.0,29.411764705882355,52.366516,4.891502
21,Frederiksstraat                       , 1054 LB ,45.0,2,3000.0,66.66666666666667,52.358039,4.859196
22,Korte Keizersstraat                       , 1011 GH ,33.0,2,2350.0,71.21212121212122,52.371387,4.9025300000000005
23,Wilhelminastraat                       , 1054 WH ,75.0,3,2000.0,26.66666666666667,52.361416,4.862565
24,Kleine Houtstraat                       , 1013 HN ,94.0,3,3500.0,37.23404255319149,52.384634999999996,4.884627
25,Lambertus Zijlplein 35                       , 1067 JR ,84.0,3,2000.0,23.809523809523807,52.378507,4.801399
26,Stadionweg                       , 1077 SR ,80.0,3,2500.0,31.25,52.345615,4.859659
27,Prinsengracht                       , 1016 HJ ,35.0,1,1700.0,48.57142857142857,52.362122,4.898975
30,Wilhelminastraat 28 2                       , 1054 WJ ,52.0,2,2500.0,48.07692307692307,52.362398,4.86615
31,Keizersgracht 735 II                       , 1017 DZ ,83.0,2,3500.0,42.16867469879518,52.364292999999996,4.899411
32,Kromme-Mijdrechtstraat                       , 1079 KR ,60.0,2,3500.0,58.33333333333334,52.347187,4.908138
33,Legmeerplein                       , 1058 NL ,65.0,3,3000.0,46.153846153846146,52.353083000000005,4.851792
35,Andersensingel                       , 1102 VS ,55.0,2,2300.0,41.81818181818182,52.321532,4.943245
36,Czaar Peterstraat 149 3                       , 1018 PH ,60.0,4,2000.0,33.333333333333336,52.370888,4.930453
37,Bolestein 546 A                       , 1081 EJ ,88.0,3,2800.0,31.818181818181817,52.324934000000006,4.859314
38,Backershagen                       , 1082 GR ,130.0,4,5000.0,38.46153846153846,52.324708,4.875113
39,Van Nijenrodeweg                       , 1083 EK ,90.0,4,3000.0,33.333333333333336,52.327337,4.858141000000001
40,Visseringstraat                       , 1051 KG ,86.0,3,4450.0,51.74418604651163,52.3775,4.869694
41,Keizersgracht                       , 1015 CW ,70.0,2,3500.0,50.0,52.364336,4.892515
42,Dirk Bonsstraat                       , 1063 TX ,48.0,2,1250.0,26.04166666666667,52.378412,4.835141999999999
43,Kortenaerstraat 19 1                       , 1057 JL ,68.0,2,4000.0,58.82352941176471,52.369105,4.862561
44,Djambistraat 27 3                       , 1094 AX ,47.0,2,2150.0,45.744680851063826,52.36485,4.9381639999999996
45,Rijnstraat                       , 1078 RB ,75.0,3,4050.0,54.0,52.348776,4.9042010000000005
46,Van Spilbergenstraat 35 2                       , 1057 PX ,55.0,3,2300.0,41.81818181818182,52.365499,4.852004
47,Oosterpark 35 B                       , 1092 AL ,76.0,3,3650.0,48.026315789473685,52.358484999999995,4.919766
48,Lou Jansenplein                       , 1063 GV ,59.0,3,2000.0,33.898305084745765,52.383919,4.819766
49,Van Eeghenstraat                       , 1071 EZ ,184.0,5,5950.0,32.33695652173913,52.356458,4.869726
50,Omval 115                       , 1096 AA ,110.0,4,4450.0,40.45454545454545,52.345106,4.915529
51,Beethovenstraat 215                       , 1077 JE ,116.0,3,3150.0,27.15517241379311,52.342081,4.877511
52,Voordek                       , 1034 SR ,76.0,4,2300.0,30.26315789473684,52.410984,4.917338
53,Joos Banckersplantsoen                       , 1056 LD ,97.0,3,3500.0,36.082474226804116,52.37636,4.856558000000001
55,Sanderijnstraat 37 2                       , 1055 BP ,55.0,3,2150.0,39.09090909090909,52.377517,4.850375
57,Madurastraat 55 2                       , 1094 GG ,68.0,3,2800.0,41.1764705882353,52.364394,4.9339699999999995
58,Bloemgracht                       , 1016 KH ,240.0,4,8000.0,33.333333333333336,52.374193,4.876384
60,Rinus Michelslaan                       , 1061 MB ,75.0,3,3500.0,46.66666666666666,52.373158000000004,4.838783
61,Madurastraat 22 B                       , 1094 GM ,30.0,2,2500.0,83.33333333333333,52.364101,4.932519
62,Brouwersgracht 248 K                       , 1013 HE ,60.0,2,2150.0,35.833333333333336,52.382417,4.885611
63,Ceintuurbaan                       , 1074 EB ,60.0,2,2800.0,46.66666666666666,52.354812,4.9010370000000005
64,Ceintuurbaan                       , 1072 GB ,60.0,2,2300.0,38.333333333333336,52.354812,4.9010370000000005
65,Lodewijk Boisotstraat                       , 1057 ZN ,60.0,3,3000.0,50.0,52.369219,4.858385
66,Marnixkade                       , 1015 ZJ ,38.0,1,2500.0,65.78947368421052,52.383,4.88131
67,Eerste Constantijn Huygensstraat                       , 1054 BS ,50.0,3,4000.0,80.0,52.362854,4.8753
68,Welnastraat                       , 1096 GJ ,28.0,1,3000.0,107.14285714285714,52.339568,4.919455
69,Warmoesstraat 50 R                       , 1012 JE ,70.0,3,3650.0,52.14285714285714,52.375513,4.898103
70,Eerste Jan Steenstraat 126 2                       , 1072 NT ,70.0,3,3000.0,42.857142857142854,52.354289,4.892857
72,Albert Cuypstraat 209 1                       , 1073 BE ,45.0,2,1300.0,28.88888888888889,52.356234,4.895976
73,Westerstraat                       , 1015 LX ,50.0,2,2000.0,40.0,52.377634,4.879553
74,Blaeustraat                       , 1012 ZK ,25.0,1,1500.0,60.0,52.374377,4.892204
75,Herengracht 437 C                       , 1017 BR ,70.0,3,3500.0,50.0,52.365048,4.898317
76,Balthasar Floriszstraat 55 B                       , 1071 VB ,53.0,3,3000.0,56.60377358490565,52.353396999999994,4.885807
77,Kinderdijkstraat 68 3                       , 1079 GM ,86.0,5,3050.0,35.46511627906977,52.342107,4.902794999999999
78,Duke Ellingtonstraat 92                       , 1066 GG ,83.0,3,2800.0,33.734939759036145,52.343785,4.826893
79,Kinkerstraat                       , 1053 EC ,53.0,4,4500.0,84.90566037735849,52.367585999999996,4.873204
82,Nieuwe Spiegelstraat 67 2                       , 1017 DD ,90.0,3,4500.0,50.0,52.362871000000005,4.888326999999999
83,Grubbehoeve 528                       , 1103 GZ ,70.0,3,2500.0,35.714285714285715,52.321782,4.977894
84,Michelangelostraat                       , 1077 BZ ,85.0,4,3050.0,35.882352941176464,52.345487,4.871384
85,Sarphatipark 114 3                       , 1073 ED ,83.0,3,3650.0,43.975903614457856,52.353744,4.897897
86,Krommeniestraat                       , 1013 XH ,69.0,2,2500.0,36.231884057971016,52.391242999999996,4.875186
87,Krommeniestraat                       , 1013 XH ,89.0,3,5000.0,56.179775280898866,52.391242999999996,4.875186
88,Krommeniestraat                       , 1013 XH ,36.0,1,2500.0,69.44444444444444,52.391242999999996,4.875186
90,Krommeniestraat                       , 1013 XH ,65.0,3,3000.0,46.153846153846146,52.391242999999996,4.875186
91,Krommeniestraat                       , 1013 XH ,86.0,3,4500.0,52.32558139534883,52.391242999999996,4.875186
93,Brouwersgracht 248 B                       , 1013 HE ,62.0,2,2800.0,45.161290322580655,52.382417,4.885611
94,Krommeniestraat                       , 1013 XH ,51.0,2,2500.0,49.01960784313725,52.391242999999996,4.875186
95,Pietersbergweg 231                       , 1105 BM ,32.0,2,1850.0,57.8125,52.298977,4.9559940000000005
97,Singel                       , 1012 VG ,69.0,2,4450.0,64.4927536231884,52.375858,4.891292
98,Scherpenzeelstraat 75                       , 1107 HS ,80.0,4,2500.0,31.25,52.293867,4.978268
99,Singel 115                       , 1012 VH ,80.0,3,4200.0,52.5,52.375528,4.890916000000001
100,Gerard Douplein 4 1                       , 1072 VE ,32.0,2,2500.0,78.125,52.35595,4.892368
101,Erich Salomonstraat 655                       , 1087 KC ,85.0,3,2000.0,23.52941176470589,52.354309,5002371.0
102,Pieter Calandlaan                       , 1060 TV ,100.0,3,2000.0,20.0,52.352802000000004,4.803401999999999
104,Piet Gijzenbrugstraat                       , 1059 XG ,60.0,3,2500.0,41.66666666666666,52.350263,4.846845
105,Medemblikstraat 33 1+2                       , 1023 XN ,100.0,4,2500.0,25.0,52.393417,4.939021
106,Rapenburg 103 2                       , 1011 TW ,150.0,6,3650.0,24.33333333333333,52.370324,4.910563
107,Oudezijds Voorburgwal 134 1                       , 1012 GH ,41.0,2,2300.0,56.09756097560975,52.373244,4.897036
108,Rijswijkstraat                       , 1062 EP ,60.0,2,3500.0,58.33333333333334,52.350062,4.840298000000001
109,Oudezijds Voorburgwal                       , 1012 EH ,100.0,3,4500.0,45.0,52.372452,4.896855
110,George Gershwinlaan 167                       , 1082 MT ,97.0,2,2950.0,30.41237113402061,52.335851,4.872888
111,Hoogte Kadijk 54 2                       , 1018 BN ,51.0,3,2800.0,54.901960784313715,52.369735,4.913946
112,Zeilstraat 48 1                       , 1075 SJ ,55.0,2,3500.0,63.63636363636363,52.350938,4.853867
114,Gustav Mahlerlaan                       , 1082 MK ,42.0,1,2300.0,54.76190476190475,52.336678000000006,4.877193
115,Martin Vlaarkade                       , 1013 CS ,60.0,2,2000.0,33.333333333333336,52.388644,4.881382
116,Koerierstersplein                       , 1011 MR ,65.0,3,2150.0,33.07692307692308,52.369369,4.907604
117,Veerstraat                       , 1075 SZ ,60.0,2,2800.0,46.66666666666666,52.35139,4.853946
119,Lutmastraat 155 D                       , 1073 GW ,43.0,2,2500.0,58.139534883720934,52.351490999999996,4.900858
120,Brouwersgracht 248 A                       , 1013 HE ,78.0,2,4000.0,51.282051282051285,52.382417,4.885611
121,Brouwersgracht 248 K                       , 1013 HE ,60.0,2,2150.0,35.833333333333336,52.382417,4.885611
122,Andreasplein 89                       , 1058 GD ,145.0,4,4200.0,28.96551724137931,52.357232,4.846467
123,Jan Smitstraat                       , 1069 SZ ,95.0,3,3000.0,31.578947368421048,52.351232,4.800521
124,Tweede Anjeliersdwarsstraat                       , 1015 NT ,50.0,2,3500.0,70.0,52.377689000000004,4.881539
125,Staalstraat 11 D                       , 1011 JK ,54.0,2,2300.0,42.5925925925926,52.368238,4.897623
126,Holendrechtstraat                       , 1078 TT ,22.0,1,915.0,41.59090909090909,52.349028000000004,4.908976999999999
127,Mauritskade                       , 1093 RR ,50.0,2,2500.0,50.0,52.36339,4.922301
128,Prinsengracht 528 3                       , 1017 KJ ,80.0,2,4500.0,56.25,52.36334,4.886501
129,Overtoom                       , 1054 JD ,70.0,3,2500.0,35.714285714285715,52.361024,4.868881
130,Andries Copierstraat 38                       , 1061 SE ,104.0,3,3600.0,34.615384615384606,52.36703,4.836906
131,Korte Leidsedwarsstraat                       , 1017 PV ,55.0,2,2500.0,45.45454545454545,52.363282,4.884683
132,Veembroederhof 161                       , 1019 HD ,130.0,1,4200.0,32.30769230769231,52.3764,4.924331
134,Van Nijenrodeweg 509                       , 1082 HP ,36.0,2,1300.0,36.111111111111114,52.327508,4.874333999999999
135,Hoogoord                       , 1102 CB ,93.0,6,4350.0,46.774193548387096,52.313324,4.957086
136,Elisabeth Wolffstraat                       , 1053 TR ,70.0,2,2750.0,39.285714285714285,52.369781,4.867401
138,Termini 449                       , 1025 XM ,75.0,3,3500.0,46.66666666666666,52.401757,4.934012
139,Fritz Dietrich Kahlenbergstraat                       , 1087 MS ,90.0,3,3500.0,38.888888888888886,52.349884,5011086.0
140,Churchill-laan                       , 1078 EW ,141.0,3,9000.0,63.829787234042556,52.347366,4.890144
141,Geldersekade                       , 1011 EJ ,80.0,3,3000.0,37.5,52.374888,4.901322
142,Heer Halewijnstraat                       , 1055 SR ,53.0,3,1700.0,32.075471698113205,52.377753999999996,4.854435
143,Buiksloterweg 101                       , 1031 CJ ,56.0,1,2300.0,41.07142857142857,52.388363,4.915202
144,Funenpark 514                       , 1018 AK ,115.0,3,4500.0,39.130434782608695,52.36835,4.929804
145,Tweede Oosterparkstraat 3 HS                       , 1091 HT ,65.0,3,3500.0,53.84615384615386,52.355932,4.9122580000000005
146,Madurastraat 9 B                       , 1094 GC ,65.0,2,1700.0,26.153846153846153,52.364412,4.936261
147,Vrolikstraat 349 R                       , 1092 TB ,83.0,3,3500.0,42.16867469879518,52.356934,4.920026999999999
148,Tweede Jan van der Heijdenstraat                       , 1074 XR ,47.0,2,3000.0,63.829787234042556,52.355767,4.901695
150,Ten Katestraat                       , 1053 CG ,62.0,3,2800.0,45.161290322580655,52.366014,4.86771
151,Pieter Cornelisz. Hooftstraat 57 I                       , 1071 BN ,70.0,3,3150.0,45.0,52.360347,4.881598
154,Overtoom                       , 1054 HC ,82.0,3,4000.0,48.780487804878035,52.361024,4.868881
156,Sarphatipark 116 IV                       , 1073 ED ,75.0,3,2500.0,33.333333333333336,52.353771,4.897985
158,Overtoom                       , 1054 JD ,166.0,7,4650.0,28.01204819277109,52.361024,4.868881
159,Cornelis Schuytstraat 38 II                       , 1071 JK ,133.0,4,4500.0,33.83458646616541,52.354268,4.872013
160,Vondelstraat 170 I                       , 1054 GV ,90.0,3,3650.0,40.55555555555557,52.360621,4.870868
161,Agamemnonstraat                       , 1076 LN ,125.0,5,3500.0,28.0,52.344637,4.863630000000001
162,Lauriergracht 121 III-IV                       , 1016 RK ,112.0,3,3650.0,32.589285714285715,52.370439000000005,4.877802
163,Archimedesweg 65 I                       , 1098 JM ,50.0,2,2300.0,46.0,52.355872,4.939879
164,Dusartstraat                       , 1072 HT ,55.0,2,2000.0,36.36363636363637,52.35183,4.889398
165,Nijenburg 88                       , 1081 GG ,80.0,4,4450.0,55.625,52.328540000000004,4.865784
166,Weenahof 16                       , 1083 JE ,97.0,3,3500.0,36.082474226804116,52.333787,4.881861
167,Overvoorde                       , 1082 GB ,110.0,4,3450.0,31.363636363636363,52.326190000000004,4.8723529999999995
168,Amerbos                       , 1025 ZT ,85.0,4,2150.0,25.294117647058826,52.403942,4.941201
169,Rosy Wertheimstraat                       , 1082 MZ ,48.0,2,3500.0,72.91666666666667,52.336185,4.8757
171,Willem de Zwijgerlaan                       , 1056 JN ,60.0,3,2500.0,41.66666666666666,52.371165999999995,4.863198000000001
172,Beethovenstraat                       , 1077 JS ,140.0,4,4500.0,32.142857142857146,52.343825,4.877039
173,Amstelvlietstraat                       , 1096 GG ,175.0,4,9000.0,51.42857142857143,52.338908,4.918436
176,Liendenhof                       , 1108 HP ,115.0,4,4000.0,34.78260869565217,52.307937,4.983103
177,Burgemeester Hogguerstraat                       , 1064 CM ,93.0,2,3000.0,32.25806451612903,52.373284999999996,4.829275
178,Nieuwe Spiegelstraat 68 1                       , 1017 DH ,78.0,2,4500.0,57.69230769230769,52.36315,4.888324
179,Boterdiepstraat                       , 1079 SW ,81.0,3,3000.0,37.03703703703704,52.342121,4.909733
183,Kromme-Mijdrechtstraat                       , 1079 KR ,60.0,2,3500.0,58.33333333333334,52.347187,4.908138
184,Marnixstraat 220 E                       , 1016 TL ,71.0,3,3500.0,49.29577464788731,52.371239,4.876067
185,Weteringschans 95 II                       , 1017 RZ ,85.0,4,6200.0,72.94117647058823,52.360989000000004,4.887424
186,Singel 93 I                       , 1012 VG ,75.0,2,4450.0,59.33333333333334,52.376034000000004,4.891513
187,Bellamystraat 32                       , 1053 BM ,58.0,2,2000.0,34.48275862068966,52.367179,4.865858
188,Loodskotterhof                       , 1034 CM ,82.0,3,2150.0,26.21951219512195,52.405708000000004,4.90952
189,Niasstraat                       , 1095 VA ,106.0,3,3000.0,28.301886792452827,52.365027000000005,4.942769
191,Grensstraat                       , 1091 SW ,65.0,2,3000.0,46.153846153846146,52.354195000000004,4.910623
192,Prinsengracht                       , 1017 LD ,150.0,5,4700.0,31.33333333333333,52.362122,4.898975
194,J.J. Cremerstraat 4 hs                       , 1054 TD ,65.0,2,3000.0,46.153846153846146,52.360203000000006,4.857616999999999
196,Van Nijenrodeweg                       , 1083 EL ,87.0,3,2800.0,32.18390804597701,52.327461,4.858417
197,Van Linschotenstraat 38                       , 1013 PN ,63.0,3,3600.0,57.14285714285714,52.389254,4.88709
198,Sarphatipark 114 III                       , 1073 ED ,80.0,3,4500.0,56.25,52.353744,4.897897
199,Utrechtsedwarsstraat                       , 1017 WG ,40.0,1,2300.0,57.5,52.361512,4.8993519999999995
201,Reguliersgracht                       , 1017 LR ,55.0,3,3450.0,62.72727272727273,52.362235999999996,4.896054
202,Nieuwezijds Voorburgwal                       , 1012 SE ,60.0,2,2150.0,35.833333333333336,52.374402,4.891203
203,Mensinge 70                       , 1083 HG ,110.0,3,3450.0,31.363636363636363,52.332646000000004,4.888374
204,Govert Flinckstraat 110 B                       , 1072 EL ,96.0,3,4350.0,45.3125,52.354349,4.889876
205,Boomstraat                       , 1015 LA ,50.0,2,3000.0,60.0,52.379166,4.8846099999999995
206,Da Costastraat 10 1                       , 1053 ZB ,78.0,2,2500.0,32.05128205128205,52.367758,4.875131
207,Jacob van Lennepstraat                       , 1053 KB ,50.0,2,2500.0,50.0,52.366959,4.875331
208,Van Oldenbarneveldtstraat                       , 1052 JV ,71.0,3,3050.0,42.95774647887324,52.375406,4.8746
209,Oudezijds Voorburgwal 43 1                       , 1012 EJ ,28.0,2,2000.0,71.42857142857143,52.374414,4.899625
210,Van Heenvlietlaan 186 A                       , 1083 CM ,126.0,4,4300.0,34.12698412698413,52.327461,4.882212
212,Ceintuurbaan                       , 1074 EB ,60.0,2,2800.0,46.66666666666666,52.354812,4.9010370000000005
213,Duinluststraat                       , 1024 VH ,95.0,3,2500.0,26.315789473684212,52.395356,4.952368
214,Waldeck Pyrmontlaan 20 3RV                       , 1075 BX ,180.0,6,3500.0,19.444444444444443,52.353227000000004,4.857273999999999
215,Oudeschans 67 E                       , 1011 KW ,65.0,2,4000.0,61.53846153846154,52.370457,4.903454
216,Crynssenstraat 51                       , 1058 XV ,60.0,2,3500.0,58.33333333333334,52.363162,4.855981
217,Transvaalkade                       , 1092 JN ,40.0,2,2500.0,62.5,52.352773,4.92225
219,Bentinckstraat                       , 1051 GJ ,80.0,4,4200.0,52.5,52.383441999999995,4.872928
220,Kinkerstraat                       , 1053 GG ,76.0,2,3000.0,39.473684210526315,52.367585999999996,4.873204
221,Oudezijds Achterburgwal 169 A                       , 1012 DH ,75.0,3,3500.0,46.66666666666666,52.371067,4.896708
222,Geelvinckssteeg 6 1                       , 1017 BE ,65.0,3,3000.0,46.153846153846146,52.366516,4.891502
223,Runstraat 23 III                       , 1016 GJ ,60.0,3,2500.0,41.66666666666666,52.368836,4.883268
224,Prins Hendrikkade                       , 1011 AN ,65.0,2,3000.0,46.153846153846146,52.378884,4.895995
225,Brouwersgracht 248 F                       , 1013 HE ,62.0,2,2500.0,40.32258064516129,52.382417,4.885611
226,Brouwersgracht 248 A                       , 1013 HE ,78.0,2,4000.0,51.282051282051285,52.382417,4.885611
227,Brouwersgracht 248 K                       , 1013 HE ,60.0,2,2150.0,35.833333333333336,52.382417,4.885611
228,Derde Schinkelstraat 27 G                       , 1075 TK ,53.0,2,2500.0,47.16981132075472,52.352740999999995,4.854595
229,Da Costastraat                       , 1053 ZD ,140.0,4,3500.0,25.0,52.371164,4.8733059999999995
231,Rozenstraat                       , 1016 PB ,30.0,2,1950.0,65.0,52.372417999999996,4.879646
232,Jan Olphert Vaillantlaan                       , 1086 ZA ,60.0,3,2150.0,35.833333333333336,52.362457,4.979589
233,Cruquiusweg 107                       , 1019 AG ,50.0,2,3000.0,60.0,52.36953,4.954224
234,Goudsbloemstraat                       , 1015 JR ,50.0,2,2500.0,50.0,52.380648,4.883967
235,Hoendiepstraat                       , 1079 LW ,61.0,3,3500.0,57.377049180327866,52.342346,4.910558999999999
236,Overtoom                       , 1054 LG ,90.0,2,3000.0,33.333333333333336,52.361024,4.868881
238,Tweede Jan Steenstraat                       , 1073 VL ,60.0,3,3500.0,58.33333333333334,52.355608000000004,4.89889
240,Corantijnstraat                       , 1058 DD ,55.0,3,3500.0,63.63636363636363,52.361822,4.852588
241,Schinkelhavenkade                       , 1075 VS ,91.0,2,3500.0,38.46153846153846,52.355515999999994,4.854101
242,Kromme-Mijdrechtstraat                       , 1079 KR ,60.0,2,3500.0,58.33333333333334,52.347187,4.908138
243,Brouwersgracht 248 B                       , 1013 HE ,62.0,2,2800.0,45.161290322580655,52.382417,4.885611
244,Jephtastraat                       , 1055 JT ,84.0,4,2500.0,29.761904761904763,52.380952,4.845597
245,Van der Palmkade 214                       , 1051 RL ,100.0,3,3500.0,35.0,52.379658,4.873011
247,Singel                       , 1012 VG ,60.0,3,3150.0,52.5,52.375858,4.891292
248,Jan Olphert Vaillantlaan                       , 1086 ZA ,60.0,3,2150.0,35.833333333333336,52.362457,4.979589
249,Berenstraat                       , 1016 GH ,60.0,2,2500.0,41.66666666666666,52.370433,4.882517
250,Overtoom 244 IV                       , 1054 JA ,100.0,3,2950.0,29.5,52.361553,4.870123
251,Wouwermanstraat 24 3                       , 1071 LZ ,80.0,3,2150.0,26.875,52.355049,4.879065
252,Valschermkade                       , 1059 CD ,18.0,1,2000.0,111.11111111111113,52.342239,4.845758999999999
253,Leliegracht                       , 1015 DJ ,59.0,2,2500.0,42.3728813559322,52.375484,4.8859900000000005
254,Kramatweg                       , 1095 JW ,50.0,2,2300.0,46.0,52.360388,4.945341
255,IJburglaan                       , 1087 CE ,118.0,3,4450.0,37.71186440677965,52.368507,4.971287
256,Bella Vistastraat                       , 1096 GM ,100.0,4,3500.0,35.0,52.338004999999995,4.919954
257,Leidsestraat 108 C                       , 1017 PG ,88.0,3,3000.0,34.09090909090909,52.364587,4.883215
258,Hoofdweg 230 2                       , 1057 DG ,58.0,3,3500.0,60.3448275862069,52.367094,4.852836
260,Sarphatistraat                       , 1018 EX ,70.0,3,3500.0,50.0,52.360839,4.9067050000000005
262,Nachtwachtlaan                       , 1058 ES ,98.0,4,4500.0,45.91836734693877,52.36012,4.843505
263,Theodoor van Hoytemastraat                       , 1062 CG ,40.0,2,2500.0,62.5,52.360356,4.837884
264,Onstein 36                       , 1082 KL ,70.0,3,3000.0,42.857142857142854,52.331405,4.869374
266,Rokin 122 4                       , 1012 LC ,120.0,3,3500.0,29.16666666666667,52.368567,4.891993
267,Commelinstraat                       , 1093 TP ,60.0,2,2500.0,41.66666666666666,52.363788,4.92666
268,Elzenhagensingel                       , 1022 LA ,98.0,3,1400.0,14.285714285714285,52.406032,4.935382
269,Kromme-Mijdrechtstraat                       , 1079 KR ,60.0,2,3500.0,58.33333333333334,52.347187,4.908138
270,Brouwersgracht 248 F                       , 1013 HE ,62.0,2,2500.0,40.32258064516129,52.382417,4.885611
271,Kinkerstraat                       , 1053 GB ,43.0,2,2350.0,54.65116279069768,52.367585999999996,4.873204
272,Lange Niezel                       , 1012 GS ,30.0,1,2000.0,66.66666666666667,52.375009000000006,4.898612
273,Arent Janszoon Ernststraat                       , 1082 LM ,80.0,4,2500.0,31.25,52.331795,4.889087
274,H. Cleyndertweg                       , 1025 EE ,81.0,3,2500.0,30.8641975308642,52.403166999999996,4.93714
275,Schipluidenlaan                       , 1062 HE ,75.0,3,3500.0,46.66666666666666,52.356334000000004,4.839951
276,Jan Luijkenstraat 42 B                       , 1071 CR ,43.0,2,2000.0,46.511627906976734,52.360139000000004,4.882002
277,Grubbehoeve                       , 1103 GZ ,65.0,2,2350.0,36.153846153846146,52.321782,4.976754
278,Marnixstraat                       , 1017 PJ ,50.0,2,2800.0,56.0,52.365369,4.880152
279,Eerste Helmersstraat                       , 1054 DV ,55.0,2,2300.0,41.81818181818182,52.363890999999995,4.876734
281,Pretoriusstraat 58 1                       , 1092 GJ ,85.0,3,3150.0,37.058823529411775,52.355128,4.9225129999999995
282,Van Spilbergenstraat 10 1                       , 1057 RG ,58.0,3,1700.0,29.310344827586214,52.367437,4.851202
283,Amstelveenseweg 864 I                       , 1081 JM ,42.0,2,2000.0,47.61904761904761,52.328655,4.85723
285,Bloemgracht 158 C                       , 1015 TT ,45.0,2,2150.0,47.77777777777778,52.374287,4.8781099999999995
286,Bolestein 268                       , 1081 EC ,88.0,3,3000.0,34.09090909090909,52.325837,4.858159
287,Ruysdaelstraat                       , 1071 XE ,55.0,2,3000.0,54.54545454545455,52.354581,4.886157
288,Kuipersstraat                       , 1073 ER ,40.0,2,2000.0,50.0,52.353543,4.902691
289,Marnixstraat 77 D                       , 1015 VD ,130.0,4,5000.0,38.46153846153846,52.382095,4.881634
290,Admiralengracht 113 A                       , 1057 ET ,114.0,3,4500.0,39.473684210526315,52.368916999999996,4.856676
291,Daniël Stalpertstraat 28 A                       , 1072 XG ,91.0,4,3150.0,34.615384615384606,52.35622,4.888285
292,Herengracht                       , 1015 BB ,80.0,3,4200.0,52.5,52.365048,4.898317
293,Driekoningenstraat                       , 1016 AL ,93.0,3,4000.0,43.01075268817203,52.373945,4.8881440000000005
294,Amstelveenseweg 206 IV                       , 1075 XS ,55.0,3,2800.0,50.90909090909091,52.351622,4.8559730000000005
295,Haarlemmermeerstraat 68 2                       , 1058 KC ,75.0,5,2500.0,33.333333333333336,52.35582,4.850095
296,Valeriusstraat                       , 1071 MN ,57.0,3,2200.0,38.59649122807018,52.353221999999995,4.865353
297,Overtoom                       , 1054 HK ,115.0,3,5500.0,47.82608695652174,52.361024,4.868881
298,Jisperveldstraat                       , 1024 AZ ,85.0,4,3000.0,35.29411764705883,52.398777,4.951183
299,Ceintuurbaan                       , 1074 EB ,60.0,2,2800.0,46.66666666666666,52.354812,4.9010370000000005
300,Brouwersgracht 248 A                       , 1013 HE ,78.0,2,4000.0,51.282051282051285,52.382417,4.885611
301,Hemonystraat                       , 1074 BL ,75.0,2,3150.0,42.0,52.356921,4.902516
302,Van Baerlestraat                       , 1071 BD ,90.0,3,4200.0,46.66666666666666,52.354889,4.880967
305,Grote Ruwenberg                       , 1083 BS ,66.0,3,2350.0,35.60606060606061,52.325415,4.8842
306,Zaandijkstraat                       , 1013 VN ,50.0,2,3500.0,70.0,52.38798,4.879565
307,Ferdinand Bolstraat                       , 1072 LB ,65.0,2,2800.0,43.07692307692307,52.350566,4.891676
308,Wiborgeiland                       , 1014 ZC ,71.0,2,3150.0,44.36619718309859,52.393456,4.87726
309,Frans Halsstraat                       , 1072 BX ,50.0,2,3000.0,60.0,52.356556,4.888733
310,Nassaukade                       , 1054 AA ,153.0,5,4500.0,29.411764705882355,52.379571999999996,4.878407
311,Gerard Douplein 7 2                       , 1073 XE ,35.0,2,2500.0,71.42857142857143,52.356266999999995,4.892951999999999
312,Amsteldijk 45 1ACHTER                       , 1074 HW ,48.0,3,3000.0,62.5,52.354738,4.9058269999999995
313,Amsteldijk 45 1 VOOR                       , 1074 HW ,40.0,2,2000.0,50.0,52.354738,4.9058269999999995
314,Emmastraat 40 II                       , 1075 HW ,110.0,3,3500.0,31.818181818181817,52.352618,4.869919
315,Nova Zemblastraat 49                       , 1013 RJ ,100.0,4,3000.0,30.0,52.389645,4.883781
316,Van Suchtelen van de Haarestraat                       , 1068 GV ,100.0,4,4450.0,44.5,52.357359,4.800954
317,Amstel 108 B                       , 1017 AD ,75.0,3,5500.0,73.33333333333333,52.36696,4.897082
318,Tweede Jan van der Heijdenstraat 26 2                       , 1073 VJ ,60.0,3,3000.0,50.0,52.355145,4.899908
319,Kloekhorststraat 163                       , 1104 ML ,73.0,3,3500.0,47.94520547945206,52.317284,4.969253
320,Westerdok                       , 1013 BH ,65.0,3,3500.0,53.84615384615386,52.385518,4.890923
321,Bilderdijkstraat 69 1A                       , 1053 KM ,32.0,2,2000.0,62.5,52.372547999999995,4.871593
322,Deurloostraat 40 2                       , 1078 JC ,81.0,3,3000.0,37.03703703703704,52.346432,4.892328
323,Jacob van Lennepkade                       , 1053 NM ,68.0,3,3150.0,46.32352941176471,52.366584,4.875938
324,IJburglaan                       , 1087 CE ,120.0,3,4450.0,37.083333333333336,52.368507,4.971287
325,Beethovenstraat 73 A                       , 1077 HP ,70.0,3,3000.0,42.857142857142854,52.347275,4.877231
326,Kotterspad 32                       , 1081 KP ,95.0,2,3050.0,32.10526315789474,52.332209000000006,4.856044
327,Ceintuurbaan                       , 1074 EB ,60.0,2,2800.0,46.66666666666666,52.354812,4.9010370000000005
328,Hageland 132 K                       , 1066 SB ,40.0,2,2500.0,62.5,52.345265000000005,4.812197
329,Tweede Kostverlorenkade                       , 1052 RH ,60.0,3,2500.0,41.66666666666666,52.36509,4.860831
330,De Kempenaerstraat                       , 1051 CN ,44.0,3,2300.0,52.27272727272727,52.381762,4.869285
331,Wijdesteeg                       , 1012 RN ,55.0,2,3000.0,54.54545454545455,52.371607,4.889978
332,Spuistraat                       , 1012 VN ,62.0,2,4000.0,64.51612903225806,52.37056,4.889144
333,Spuistraat                       , 1012 VN ,85.0,3,5500.0,64.70588235294117,52.37056,4.889144
334,Tielstraat                       , 1107 PZ ,52.0,2,2750.0,52.884615384615394,52.291833000000004,4.96894
335,Nieuwe Nieuwstraat 45                       , 1012 NG ,90.0,3,3150.0,35.0,52.375276,4.892901999999999
336,Amstelveenseweg                       , 1075 VZ ,65.0,3,3000.0,46.153846153846146,52.350707,4.856841999999999
337,Buitendraaierij                       , 1021 NM ,39.0,2,2300.0,58.97435897435897,52.381813,4.916164
339,Gaaspstraat                       , 1079 VD ,63.0,3,3150.0,50.0,52.344208,4.908371
340,Gaaspstraat                       , 1079 VC ,62.0,3,3150.0,50.806451612903224,52.344208,4.908371
341,Da Costastraat                       , 1053 ZJ ,98.0,3,2950.0,30.102040816326532,52.371164,4.8733059999999995
343,J.J. Viottastraat 21 II                       , 1071 JN ,202.0,6,9850.0,48.762376237623755,52.353327,4.873801
344,Kotteraarstraat 2                       , 1033 MC ,75.0,3,2800.0,37.333333333333336,52.408408,4.891577
346,Loenermark 820                       , 1025 VN ,65.0,2,2000.0,30.76923076923077,52.397444,4.9297830000000005
347,Duifjessteeg 12                       , 1012 KW ,89.0,3,3150.0,35.39325842696629,52.370849,4.891894000000001
348,De Lairessestraat                       , 1071 PL ,86.0,2,3450.0,40.11627906976744,52.352568,4.867877
349,IJburglaan 960                       , 1087 JK ,129.0,3,2500.0,19.37984496124031,52.353664,4.9974300000000005
350,Cas Oorthuyskade 172                       , 1087 BB ,182.0,4,3500.0,19.23076923076923,52.360234999999996,4.989694
351,Galjootstraat 60                       , 1086 VE ,83.0,3,2500.0,30.120481927710838,52.364314,4.986399
352,Overschiestraat 170 C3                       , 1062 XK ,74.0,3,1800.0,24.324324324324326,52.348849,4.839201
353,Overschiestraat 170 B37                       , 1062 XK ,77.0,3,2600.0,33.76623376623377,52.348849,4.839201
354,Overschiestraat 170 B38                       , 1062 XK ,77.0,3,2600.0,33.76623376623377,52.348849,4.839201
355,Overschiestraat 170 B36                       , 1062 XK ,77.0,3,2600.0,33.76623376623377,52.348849,4.839201
356,Muiderstraat 10 B                       , 1011 RB ,65.0,2,3000.0,46.153846153846146,52.367484000000005,4.905997
358,Govert Flinckstraat                       , 1074 CJ ,70.0,2,4500.0,64.28571428571429,52.355581,4.895827
359,Geldersekade 102 D                       , 1012 BM ,50.0,2,2700.0,54.0,52.373708,4.900629
360,Pretoriusstraat                       , 1092 GH ,80.0,3,3500.0,43.75,52.354728,4.921661
361,Zocherstraat                       , 1054 LS ,81.0,3,4450.0,54.93827160493828,52.357236,4.856580999999999
362,Holendrechtstraat                       , 1078 TT ,40.0,1,1950.0,48.75,52.349028000000004,4.908976999999999
366,Hofmeyrstraat                       , 1091 NA ,73.0,2,2800.0,38.35616438356164,52.351442999999996,4.9164010000000005
367,H. Cleyndertweg                       , 1025 EB ,110.0,4,3000.0,27.272727272727273,52.403166999999996,4.93714
368,Lange Leidsedwarsstraat                       , 1017 NR ,40.0,2,2300.0,57.5,52.363977,4.884571
369,Grensstraat                       , 1091 SV ,65.0,3,2500.0,38.46153846153846,52.354195000000004,4.910623
370,Langswater 820                       , 1069 EH ,62.0,3,2300.0,37.096774193548384,52.359045,4.787959
371,Haarlemmerweg                       , 1051 KS ,75.0,3,3000.0,40.0,52.384848999999996,4.850744000000001
372,Herengracht                       , 1017 BX ,145.0,4,3500.0,24.13793103448276,52.365048,4.898317
373,Tweede Jan Steenstraat                       , 1074 CP ,59.0,3,4450.0,75.42372881355931,52.356401,4.901294
374,Fagelstraat 66 bv                       , 1052 GG ,97.0,3,5500.0,56.701030927835035,52.380355,4.876219
375,Eerste Constantijn Huygensstraat                       , 1054 BS ,51.0,3,4000.0,78.43137254901961,52.362854,4.8753
376,Eendrachtstraat                       , 1078 XZ ,70.0,3,3000.0,42.857142857142854,52.345101,4.889051
377,Runstraat                       , 1016 GK ,59.0,2,3000.0,50.847457627118644,52.368888,4.883527
378,Van Heenvlietlaan 160                       , 1083 CM ,135.0,4,2950.0,21.85185185185185,52.327514,4.882211
379,Apollolaan                       , 1077 AE ,120.0,5,4750.0,39.583333333333336,52.350372,4.870512000000001
380,Valeriusstraat 27 C*                       , 1071 MC ,124.0,5,4000.0,32.25806451612903,52.35158,4.858601
381,Van Ostadestraat 4 hs                       , 1072 SX ,41.0,2,2500.0,60.97560975609756,52.354942,4.905282
382,Eef Kamerbeekstraat 532                       , 1095 MP ,75.0,2,2000.0,26.66666666666667,52.371642,4.96685
383,Amstelveenseweg 208 IV                       , 1075 XS ,80.0,3,3600.0,45.0,52.351586,4.855958
386,Brouwersgracht 248 A                       , 1013 HE ,78.0,2,4000.0,51.282051282051285,52.382417,4.885611
387,Wilhelminastraat                       , 1054 WH ,65.0,3,2000.0,30.76923076923077,52.361416,4.862565
388,Baarsjesweg 235 2                       , 1058 AA ,53.0,2,2150.0,40.56603773584906,52.362505,4.857736
389,Wingerdweg 287                       , 1032 AK ,51.0,2,2150.0,42.15686274509804,52.397019,4.917739
390,Lomanstraat                       , 1075 PS ,210.0,5,8000.0,38.095238095238095,52.351284,4.859917
391,J.J. Cremerplein 10 III                       , 1054 TK ,65.0,3,3000.0,46.153846153846146,52.359761,4.859119000000001
392,Plantage Kerklaan                       , 1018 CW ,140.0,2,3650.0,26.07142857142857,52.368127,4.91343
393,Gustav Mahlerlaan                       , 1082 MK ,45.0,1,2000.0,44.444444444444436,52.336678000000006,4.877193
395,Zocherstraat 58 2                       , 1054 MA ,109.0,3,2950.0,27.06422018348624,52.356869,4.855587
396,Rozengracht 231 1                       , 1016 NA ,45.0,2,2500.0,55.55555555555557,52.372240999999995,4.876739
397,Elzenhagensingel 313                       , 1022 LA ,101.0,3,2350.0,23.26732673267327,52.402338,4.930535
398,Buitendraaierij                       , 1021 NN ,46.0,2,2300.0,50.0,52.381813,4.916164
399,Prinseneiland 55 C                       , 1013 LM ,45.0,2,1700.0,37.77777777777778,52.386421999999996,4.886946
400,Govert Flinckstraat 113 2A                       , 1072 EG ,33.0,2,1950.0,59.09090909090909,52.354841,4.891676
401,Albert Cuypstraat 138 2V                       , 1073 BJ ,32.0,2,2500.0,78.125,52.355478999999995,4.893695
402,Johannes Verhulststraat 119 1                       , 1071 MZ ,83.0,3,3650.0,43.975903614457856,52.354043,4.870959
403,Spaarndammerstraat 21 2                       , 1013 SR ,70.0,2,1700.0,24.285714285714285,52.388343,4.8800349999999995
404,Oostenburgerpark 24                       , 1018 HT ,47.0,2,2300.0,48.93617021276596,52.369004,4.924437999999999
405,Derde Leliedwarsstraat 13 3                       , 1015 TD ,55.0,3,3000.0,54.54545454545455,52.374651,4.879163
407,Van Walbeeckstraat                       , 1058 CX ,60.0,3,2800.0,46.66666666666666,52.361478000000005,4.851012
408,Reestraat 28 1                       , 1016 DN ,55.0,2,2500.0,45.45454545454545,52.372459,4.88352
409,Keizersgracht 634 L                       , 1017 ER ,65.0,2,3000.0,46.153846153846146,52.363711,4.891254
410,Postjesweg                       , 1062 JV ,80.0,4,2800.0,35.0,52.3648,4.858389
411,Kinkerstraat 215 B                       , 1053 DS ,61.0,2,3000.0,49.18032786885247,52.365372,4.865792
412,Buitenzagerij 64                       , 1021 NR ,55.0,2,1950.0,35.45454545454545,52.382375,4.917013
413,Jacob van Lennepkade 406 2                       , 1053 NN ,48.0,1,3000.0,62.5,52.362251,4.859192
414,Arondeusstraat 23                       , 1063 GB ,23.0,1,1900.0,82.6086956521739,52.382706,4.825916
415,Brouwersgracht 248 K                       , 1013 HE ,60.0,2,2150.0,35.833333333333336,52.382417,4.885611
416,Brouwersgracht 248 F                       , 1013 HE ,62.0,2,2500.0,40.32258064516129,52.382417,4.885611
417,Ten Katestraat 11                       , 1053 BV ,50.0,3,2500.0,50.0,52.367855,4.866438
419,Kinkerstraat                       , 1053 DG ,68.0,2,2500.0,36.76470588235294,52.367585999999996,4.873204
421,Willem Heselaarsstraat 70 BG                       , 1069 KA ,95.0,1,4000.0,42.10526315789474,52.352123999999996,4.798694
425,Arent Janszoon Ernststraat                       , 1082 LD ,30.0,1,2500.0,83.33333333333333,52.332122,4.888758
427,Valkenburgerstraat                       , 1011 NC ,95.0,3,5000.0,52.631578947368425,52.369578000000004,4.906694
428,Mortelstraat 127                       , 1019 VE ,85.0,3,3000.0,35.29411764705883,52.368949,4.951658
430,Van Baerlestraat                       , 1071 AS ,83.0,3,5000.0,60.240963855421676,52.354889,4.880967
431,Nieuwe Looiersstraat                       , 1017 VD ,50.0,3,2800.0,56.0,52.360618,4.893686
432,Herengracht                       , 1016 BP ,55.0,2,2500.0,45.45454545454545,52.365048,4.898317
433,Kinkerstraat                       , 1053 GB ,50.0,2,3000.0,60.0,52.367585999999996,4.873204
434,Tweede Jan Steenstraat 101 III                       , 1074 CM ,118.0,4,5500.0,46.61016949152543,52.357046000000004,4.903175
435,Valeriusstraat 239 IV                       , 1075 GA ,26.0,1,1300.0,50.0,52.351263,4.858179
436,Van Spilbergenstraat                       , 1057 RP ,127.0,4,4250.0,33.46456692913386,52.367038,4.851559
437,Kinkerstraat 338 1                       , 1053 GE ,35.0,2,2350.0,67.14285714285714,52.364853000000004,4.862318
438,Bilderdijkstraat                       , 1053 KT ,46.0,3,3000.0,65.21739130434783,52.37083,4.869921
440,Elisabeth Wolffstraat                       , 1053 TV ,50.0,3,4000.0,80.0,52.369781,4.867401
441,Nicolaas Maesstraat                       , 1071 RA ,40.0,2,2150.0,53.75,52.354105,4.878023000000001
443,Albert Cuypstraat 268 4 V                       , 1073 BR ,24.0,2,2500.0,104.16666666666669,52.356812,4.898832
445,Brouwersgracht 248 F                       , 1013 HE ,62.0,2,2500.0,40.32258064516129,52.382417,4.885611
446,Brouwersgracht 248 K                       , 1013 HE ,60.0,2,2150.0,35.833333333333336,52.382417,4.885611
447,Oude Doelenstraat                       , 1012 ED ,38.0,2,2300.0,60.526315789473685,52.371662,4.896365
449,Langswater                       , 1069 EC ,72.0,4,2500.0,34.72222222222222,52.356349,4.788918
450,Gerard Doustraat                       , 1073 XA ,56.0,3,3500.0,62.5,52.355304,4.889822000000001
451,Assumburg                       , 1081 GC ,115.0,5,2950.0,25.65217391304348,52.328355,4.867872
452,Spaarndammerstraat 33 3                       , 1013 SR ,60.0,4,2500.0,41.66666666666666,52.388638,4.879805999999999
453,Amsteldijk 15 4                       , 1074 HR ,70.0,2,3600.0,51.42857142857143,52.346071,4.91188
454,Tweede Jan Steenstraat 1 1                       , 1073 VK ,71.0,3,3650.0,51.40845070422535,52.355624,4.898244
455,Veldzicht 51                       , 1068 SM ,95.0,4,2200.0,23.157894736842106,52.363087,4.798299
456,S. F. van Ossstraat                       , 1068 JN ,55.0,2,2300.0,41.81818181818182,52.356204999999996,4.813625
457,Eef Kamerbeekstraat                       , 1095 MP ,67.0,2,3000.0,44.77611940298507,52.372494,4.966063
458,Eef Kamerbeekstraat                       , 1095 MP ,61.0,2,1600.0,26.229508196721312,52.372494,4.966063
459,Berthold Brechtstraat                       , 1102 RW ,72.0,3,2500.0,34.72222222222222,52.318382,4.946321
461,Nassaukade 9 2                       , 1052 CE ,72.0,1,3000.0,41.66666666666666,52.375976,4.875815
462,Rustenburgerstraat                       , 1072 HC ,80.0,3,4350.0,54.375,52.35135,4.890665
464,Eemsstraat                       , 1079 TJ ,80.0,3,2200.0,27.5,52.341947,4.908885
465,Tweede Jan Steenstraat                       , 1074 CN ,75.0,3,2500.0,33.333333333333336,52.355608000000004,4.89889
466,Jan Luijkenstraat 40 H                       , 1071 CR ,200.0,5,6500.0,32.5,52.360122,4.882134
467,Commelinstraat                       , 1093 TH ,44.0,3,2300.0,52.27272727272727,52.363788,4.92666
468,Elisabeth Wolffstraat                       , 1053 TW ,51.0,3,3500.0,68.62745098039215,52.369781,4.867401
471,Ecuplein 32                       , 1060 RN ,97.0,3,2800.0,28.8659793814433,52.349216,4.78523
472,Tugelaweg                       , 1092 VD ,72.0,2,3150.0,43.75,52.355156,4.91896
473,Singel                       , 1012 VD ,45.0,1,2350.0,52.22222222222222,52.375858,4.891292
474,Bestevâerstraat 195 2                       , 1055 TL ,57.0,3,2300.0,40.35087719298246,52.37003,4.856398
475,Slotermeerlaan 61                       , 1064 HA ,85.0,4,3150.0,37.058823529411775,52.376670000000004,4.818987
476,Kromme-Mijdrechtstraat                       , 1079 KR ,60.0,2,3500.0,58.33333333333334,52.347187,4.908138
477,Brouwersgracht 248 A                       , 1013 HE ,78.0,2,4000.0,51.282051282051285,52.382417,4.885611
478,Dintelstraat                       , 1078 VZ ,75.0,3,3600.0,48.0,52.341869,4.89344
479,Azaleastraat                       , 1032 BV ,70.0,3,2150.0,30.714285714285715,52.395674,4.9159809999999995
481,Loenermark                       , 1025 VP ,75.0,3,3000.0,40.0,52.399525,4.932976
482,De Klencke 101 A                       , 1083 HH ,85.0,3,4500.0,52.941176470588225,52.333504,4.885280000000001
483,Gustav Mahlerlaan 126                       , 1082 ME ,169.0,3,3500.0,20.710059171597628,52.336923,4.87132
485,Gustav Mahlerlaan 184                       , 1082 ME ,175.0,3,3400.0,19.428571428571427,52.336913,4.871129
486,Kleiburg                       , 1104 EA ,70.0,3,2300.0,32.857142857142854,52.318351,4.980421
488,Eerste Jan Steenstraat                       , 1072 NR ,110.0,4,5000.0,45.45454545454545,52.353513,4.887904
489,Krommertstraat                       , 1056 TS ,60.0,3,2300.0,38.333333333333336,52.371945000000004,4.8580190000000005
490,Weteringschans 235                       , 1017 XH ,78.0,3,4350.0,55.769230769230774,52.359511,4.895118
491,Brouwersgracht 248 C                       , 1013 HE ,78.0,2,3000.0,38.46153846153846,52.382417,4.885611
492,Eerste Van Swindenstraat                       , 1093 GB ,51.0,2,2500.0,49.01960784313725,52.362646999999996,4.927389
494,Minervalaan                       , 1077 NP ,144.0,5,3650.0,25.347222222222207,52.342892,4.873114
495,Nicolaas Witsenkade 8 C                       , 1017 ZR ,76.0,2,4450.0,58.55263157894736,52.358235,4.895936
496,Javaplein 13 III                       , 1095 CH ,65.0,2,2150.0,33.07692307692308,52.363896000000004,4.940156
497,De Boelelaan 449                       , 1082 RJ ,67.0,2,1500.0,22.38805970149253,52.334771,4.874646
498,De Boelelaan 461                       , 1082 RK ,67.0,2,2700.0,40.29850746268657,52.334771,4.874661
499,Overschiestraat 170 C1*                       , 1062 XK ,103.0,4,3400.0,33.00970873786408,52.348849,4.839201
500,Overschiestraat 170 B35*                       , 1062 XK ,112.0,4,4350.0,38.839285714285715,52.348849,4.839201
501,Rustenburgerstraat 392 hs                       , 1072 HH ,63.0,2,3500.0,55.55555555555557,52.351477,4.8909650000000005
503,Spuistraat 39 A                       , 1012 SR ,37.0,1,1300.0,35.135135135135144,52.376165,4.892936
504,Camperstraat 18 B                       , 1091 AG ,81.0,3,4350.0,53.7037037037037,52.358676,4.912832
505,Elandsgracht 19 2                       , 1016 TM ,60.0,2,3500.0,58.33333333333334,52.369735999999996,4.88154
506,Brouwersgracht 248 K                       , 1013 HE ,60.0,2,2150.0,35.833333333333336,52.382417,4.885611
508,Schinkelkade 56 l                       , 1075 VL ,45.0,2,2350.0,52.22222222222222,52.35051,4.852669000000001
509,Curaçaostraat 83 2                       , 1058 BR ,57.0,3,3500.0,61.403508771929815,52.308075,4.952173
510,Albert Cuypstraat 273                       , 1073 BH ,70.0,3,3150.0,45.0,52.354637,4.886776
511,Grevelingenstraat                       , 1078 KR ,87.0,3,2500.0,28.735632183908052,52.345888,4.888766
513,Vondelstraat                       , 1054 GV ,90.0,3,5000.0,55.55555555555557,52.3622,4.8770620000000005
514,Baarsjesweg                       , 1057 HL ,60.0,3,2500.0,41.66666666666666,52.367455,4.862214
515,Van Walbeeckstraat                       , 1058 CH ,60.0,4,2800.0,46.66666666666666,52.361478000000005,4.851012
516,Jan van Duivenvoordestraat 83                       , 1067 MT ,91.0,3,2500.0,27.47252747252747,52.379008,4.802582
517,Hemonystraat                       , 1074 BR ,75.0,3,3500.0,46.66666666666666,52.356921,4.902516
518,Gerard Doustraat                       , 1073 XA ,44.0,2,3000.0,68.18181818181819,52.355304,4.889822000000001
519,Windroosplein 126                       , 1018 ZW ,47.0,2,2150.0,45.744680851063826,52.373258,4.925127
521,Admiralengracht 55 bg                       , 1057 EN ,56.0,2,2500.0,44.64285714285715,52.366709,4.85726
522,Rokin                       , 1012 KV ,41.0,2,2500.0,60.97560975609756,52.369731,4.892156
523,Kuinderstraat 37 I                       , 1079 DJ ,57.0,3,2150.0,37.719298245614034,52.341581,4.906161
524,Nieuwe Prinsengracht 112 II                       , 1018 VX ,54.0,2,3500.0,64.81481481481481,52.363923,4.910118
525,Schaarsbergenstraat 39                       , 1107 JS ,34.0,1,1550.0,45.58823529411765,52.293659999999996,4.9808650000000005
526,Paramaribostraat                       , 1058 VH ,100.0,4,4300.0,43.0,52.361458,4.854373000000001
527,Loosduinenstraat                       , 1062 EG ,130.0,4,5000.0,38.46153846153846,52.351196,4.838119
528,Nieuwevaartweg                       , 1019 AL ,40.0,2,1950.0,48.75,52.367984,4.9535860000000005
529,Spuistraat                       , 1012 VW ,85.0,3,4050.0,47.647058823529406,52.37056,4.889144
530,Waterlooplein                       , 1011 PG ,43.0,2,2350.0,54.65116279069768,52.367166,4.902235
531,Valschermkade                       , 1059 CD ,18.0,1,2000.0,111.11111111111113,52.342239,4.845758999999999
532,Gustav Mahlerplein                       , 1082 MS ,86.0,2,4450.0,51.74418604651163,52.336651,4.873108
533,Korte Leidsedwarsstraat                       , 1017 RD ,80.0,3,4500.0,56.25,52.363282,4.884683
534,Kinkerstraat                       , 1053 DT ,43.0,2,2500.0,58.139534883720934,52.367585999999996,4.873204
535,Brouwersgracht 248 A                       , 1013 HE ,78.0,2,4000.0,51.282051282051285,52.382417,4.885611
536,Tongelaer                       , 1083 BT ,68.0,2,2800.0,41.1764705882353,52.32642,4.884233999999999
538,IJdoornlaan 261 A3                       , 1024 KM ,88.0,3,1300.0,14.772727272727273,52.393143,4.955817
539,Gerard Doustraat 88 2V                       , 1072 VW ,30.0,1,2500.0,83.33333333333333,52.35567,4.892034
540,Gerard Doustraat 88 3V                       , 1072 VW ,30.0,1,2500.0,83.33333333333333,52.35567,4.892034
541,IJdoornlaan 261 F3                       , 1024 KM ,90.0,3,2050.0,22.777777777777786,52.393143,4.955817
542,Mercuriusplein 1 2                       , 1033 AZ ,110.0,4,4500.0,40.90909090909091,52.414552,4.884291
543,Jacob van Arteveldestraat                       , 1061 CK ,87.0,4,3500.0,40.22988505747128,52.376117,4.841067
544,John Franklinstraat                       , 1056 SZ ,52.0,2,2500.0,48.07692307692307,52.372333000000005,4.853828
545,Stadhouderskade                       , 1074 BB ,90.0,3,5000.0,55.55555555555557,52.357901,4.890839
546,Muntplein 2 T                       , 1012 WR ,60.0,2,2200.0,36.66666666666666,52.367405,4.893165
547,Herengracht                       , 1016 BC ,75.0,2,3000.0,40.0,52.365048,4.898317
548,John Franklinstraat 45 hs                       , 1056 SX ,50.0,2,3000.0,60.0,52.372122,4.853745
549,Den Texstraat 7 H                       , 1017 XW ,140.0,5,7000.0,50.0,52.359002000000004,4.893685
550,Osdorper Ban                       , 1069 GA ,84.0,4,2500.0,29.761904761904763,52.359237,4.781176
551,Geelvinckssteeg                       , 1017 BE ,65.0,3,3500.0,53.84615384615386,52.366512,4.891621
552,Jan van Zutphenstraat                       , 1069 RS ,98.0,3,2600.0,26.530612244897966,52.349978,4.799207
553,Maasstraat 29 C                       , 1078 HC ,69.0,2,1900.0,27.53623188405797,52.346471,4.895277
555,Quellijnstraat                       , 1072 XW ,40.0,2,2300.0,57.5,52.356738,4.891071
556,Welnastraat                       , 1096 GJ ,29.0,1,2350.0,81.0344827586207,52.339568,4.919455
557,Sarphatistraat                       , 1018 GK ,135.0,5,7500.0,55.55555555555557,52.360839,4.9067050000000005
558,Jozef Israëlskade 84 H                       , 1073 RB ,75.0,3,4450.0,59.33333333333334,52.349069,4.901956
559,Admiralengracht                       , 1057 ET ,120.0,4,4750.0,39.583333333333336,52.369561,4.857378
561,Linnaeusstraat                       , 1093 EJ ,83.0,3,3150.0,37.951807228915655,52.362938,4.92359
562,Tweede Weteringdwarsstraat 3 H                       , 1017 SR ,66.0,2,3150.0,47.72727272727273,52.361596,4.888533
563,Pieter Calandlaan                       , 1060 TT ,96.0,4,3050.0,31.77083333333333,52.352802000000004,4.803401999999999
564,Brouwersgracht 248 A                       , 1013 HE ,78.0,2,4000.0,51.282051282051285,52.382417,4.885611
565,Brouwersgracht 248 K                       , 1013 HE ,60.0,2,2150.0,35.833333333333336,52.382417,4.885611
566,Ferdinand Bolstraat 113 3                       , 1072 LE ,55.0,2,2150.0,39.09090909090909,52.352988,4.891259
568,Vossiusstraat                       , 1071 AC ,75.0,2,3000.0,40.0,52.360596,4.879137999999999
569,Vechtstraat 122 H                       , 1079 JP ,54.0,3,4000.0,74.07407407407408,52.343203,4.907229
570,Bloemgracht                       , 1016 KP ,50.0,1,3000.0,60.0,52.374193,4.876384
571,Bloemgracht                       , 1016 KP ,40.0,1,2000.0,50.0,52.374193,4.876384
572,Orteliuskade 11 H                       , 1057 AB ,58.0,3,2500.0,43.10344827586207,52.365708000000005,4.85046
574,Singel                       , 1012 WP ,40.0,2,2500.0,62.5,52.375858,4.891292
575,Valeriusstraat 174 2                       , 1075 GH ,181.0,8,5700.0,31.491712707182327,52.353097,4.864439
576,Gerard Doustraat 8 A                       , 1072 VP ,46.0,3,3500.0,76.08695652173913,52.355651,4.891946
577,Jekerstraat 29 II                       , 1078 LW ,68.0,3,3000.0,44.11764705882353,52.345907000000004,4.898057
578,Welnastraat                       , 1096 GJ ,28.0,1,2000.0,71.42857142857143,52.339568,4.919455
580,Marnixkade 14 I                       , 1015 XM ,64.0,3,2150.0,33.59375,52.38302,4.881432
581,Marnixkade 17 II                       , 1015 XN ,60.0,2,2800.0,46.66666666666666,52.382866,4.881330999999999
582,Bilderdijkkade                       , 1052 RW ,70.0,3,4000.0,57.14285714285714,52.368394,4.869371
583,Osdorper Ban                       , 1069 GA ,115.0,3,3000.0,26.08695652173913,52.359237,4.781176
585,Nieuwe Achtergracht                       , 1018 WT ,65.0,3,2800.0,43.07692307692307,52.362893,4.909739
586,Tweede Constantijn Huygensstraat                       , 1054 CW ,125.0,4,4500.0,36.0,52.363382,4.873156
587,Rustenburgerstraat 138 2                       , 1073 GJ ,55.0,3,3000.0,54.54545454545455,52.352939,4.900974
588,1e Kekerstraat                       , 1104 VA ,90.0,3,2300.0,25.555555555555557,52.314115,4.980872
590,Curaçaostraat                       , 1058 BP ,70.0,3,2500.0,35.714285714285715,52.361198,4.851815
591,Overschiestraat 170 B2*                       , 1062 XK ,117.0,4,4700.0,40.17094017094017,52.348849,4.839201
592,Brouwersgracht 248 A                       , 1013 HE ,78.0,2,4000.0,51.282051282051285,52.382417,4.885611
593,Bijlmerdreef                       , 1103 TW ,80.0,3,2800.0,35.0,52.315571000000006,4.952914
594,Dapperstraat                       , 1093 BS ,55.0,2,2350.0,42.72727272727273,52.362814,4.92739
596,Maassluisstraat                       , 1062 GS ,40.0,2,2500.0,62.5,52.349216,4.836661
597,Bezaanjachtplein                       , 1034 CR ,50.0,2,2500.0,50.0,52.408269,4.915102
598,Loenermark                       , 1025 SV ,75.0,3,2000.0,26.66666666666667,52.399525,4.932976
599,Wilhelminastraat                       , 1054 VW ,60.0,2,2500.0,41.66666666666666,52.361416,4.862565
600,Bankastraat                       , 1094 EA ,55.0,3,2500.0,45.45454545454545,52.36482,4.933322
601,Vechtstraat                       , 1079 JG ,65.0,3,2200.0,33.846153846153854,52.344608,4.906866
602,Korte Leidsedwarsstraat                       , 1017 RD ,65.0,3,2500.0,38.46153846153846,52.363282,4.884683
604,Lumeijstraat                       , 1056 VX ,75.0,3,3000.0,40.0,52.373111,4.861139
605,Keizersgracht                       , 1015 CN ,140.0,3,3500.0,25.0,52.364336,4.892515
607,Ruimzicht                       , 1068 CP ,105.0,3,3000.0,28.57142857142857,52.361703000000006,4.809092
608,Bert Haanstrakade 182                       , 1087 DK ,110.0,2,4450.0,40.45454545454545,52.359813,4.995218
609,Hembrugstraat 7 2                       , 1013 WV ,46.0,2,2150.0,46.73913043478261,52.391917,4.877115
610,Jesse Owenshof                       , 1034 WT ,72.0,3,2000.0,27.777777777777786,52.403797999999995,4.919943
611,Bernard Zweerskade 20 III                       , 1077 VA ,145.0,5,4650.0,32.06896551724138,52.34502,4.877287
612,Tweede Kostverlorenkade 132 2                       , 1053 SE ,50.0,3,3500.0,70.0,52.364034000000004,4.860067
615,Waalstraat                       , 1079 DP ,55.0,2,2800.0,50.90909090909091,52.344337,4.900403
616,Th. J. Lammerslaan 35                       , 1064 DH ,80.0,3,3000.0,37.5,52.372176,4.8189269999999995
617,Marnixstraat                       , 1016 XV ,65.0,2,4000.0,61.53846153846154,52.365369,4.880152
618,Pieter Vlamingstraat 18 III                       , 1093 AD ,80.0,4,2800.0,35.0,52.364402,4.924456
619,Raadhuisstraat 19 II                       , 1016 DB ,35.0,2,2800.0,80.0,52.373213,4.887668
621,Brouwersgracht 248 B                       , 1013 HE ,62.0,2,2800.0,45.161290322580655,52.382417,4.885611
622,Gerard Doustraat 8 B                       , 1072 VP ,46.0,3,3500.0,76.08695652173913,52.355651,4.891946
623,Plantage Doklaan 42 D                       , 1018 CN ,19.0,1,2350.0,123.68421052631581,52.368023,4.912667
624,Overschiestraat 170 B17                       , 1062 XK ,112.0,4,4350.0,38.839285714285715,52.348849,4.839201
625,Westerdoksdijk                       , 1013 BX ,62.0,2,2500.0,40.32258064516129,52.386837,4.892743
626,Esplanade de Meer 158                       , 1098 WP ,96.0,3,2500.0,26.04166666666667,52.344765,4.950871
627,Van Kinsbergenstraat 80                       , 1057 PT ,53.0,2,3500.0,66.0377358490566,52.368646000000005,4.858235
628,Faas Wilkesstraat 225                       , 1095 MD ,67.0,3,2150.0,32.089552238805965,52.372890000000005,4.968642
629,Kloveniersburgwal 121 B                       , 1011 KC ,70.0,3,4050.0,57.85714285714285,52.368434,4.896825
631,Nachtwachtlaan 187                       , 1058 EG ,59.0,2,2150.0,36.440677966101696,52.36012,4.843505
632,Hoofdweg 95 B                       , 1058 BA ,65.0,3,2800.0,43.07692307692307,52.362178,4.85291
634,Lindengracht 29 2                       , 1015 KB ,41.0,2,2000.0,48.780487804878035,52.3804,4.8869110000000004
635,Derde Helmersstraat 72 1                       , 1054 BL ,67.0,2,3000.0,44.77611940298507,52.364810999999996,4.875253
637,Ehrlichstraat 10 2                       , 1098 SB ,70.0,3,2150.0,30.714285714285715,52.350134000000004,4.942012
639,Termini 443                       , 1025 XM ,77.0,3,3000.0,38.96103896103896,52.401761,4.934016000000001
640,Herenstraat 20                       , 1015 CB ,67.0,2,3500.0,52.23880597014925,52.377245,4.888871
641,Welnastraat                       , 1096 GJ ,32.0,1,2000.0,62.5,52.339568,4.919455
642,Muntplein 2 G                       , 1012 WR ,64.0,2,1700.0,26.5625,52.367405,4.893165
643,Van Nijenrodeweg                       , 1082 HG ,86.0,3,2800.0,32.55813953488372,52.327461,4.858417
644,Govert Flinckstraat                       , 1072 EG ,56.0,2,4000.0,71.42857142857143,52.355581,4.895827
645,Nieuwe Achtergracht 97 HS                       , 1018 WP ,55.0,3,4000.0,72.72727272727273,52.363085,4.909554
646,Martelaarsgracht 9 IV                       , 1012 TN ,51.0,2,3500.0,68.62745098039215,52.377762,4.896516
647,Bloedstraat 22 II                       , 1012 BS ,50.0,2,2500.0,50.0,52.372795,4.899433999999999
648,Rozenboomsteeg 8 I                       , 1012 PR ,81.0,3,4000.0,49.382716049382715,52.369236,4.890708
649,Kromme-Mijdrechtstraat                       , 1079 KR ,60.0,2,3500.0,58.33333333333334,52.347187,4.908138
650,Brouwersgracht 248 B                       , 1013 HE ,62.0,2,2800.0,45.161290322580655,52.382417,4.885611
651,Blasiusstraat                       , 1091 CL ,61.0,3,3000.0,49.18032786885247,52.357332,4.912146
652,Stadhouderskade 124 G                       , 1074 AV ,37.0,1,2350.0,63.51351351351353,52.357737,4.8996129999999996
653,Tweede Bloemdwarsstraat 1 B                       , 1016 LL ,55.0,4,2500.0,45.45454545454545,52.373738,4.879633
654,Julius Pergerstraat 61                       , 1087 KN ,80.0,3,2800.0,35.0,52.352025,5002068.0
655,Albert Cuypstraat 132 1                       , 1073 BJ ,36.0,2,3500.0,97.22222222222223,52.355433000000005,4.893504
657,Marnixstraat 54 HL                       , 1015 VT ,31.0,2,2350.0,75.80645161290323,52.380642,4.880299
658,Albert Cuypstraat 132 4                       , 1073 BJ ,28.0,2,3500.0,125.0,52.355433000000005,4.893504
659,Ferdinand Bolstraat                       , 1072 LB ,66.0,3,5500.0,83.33333333333333,52.350566,4.891676
661,Overschiestraat 170 B9*                       , 1062 XK ,77.0,3,2600.0,33.76623376623377,52.348849,4.839201
662,Overschiestraat 170 B19*                       , 1062 XK ,77.0,3,2600.0,33.76623376623377,52.348849,4.839201
663,Swammerdamstraat                       , 1091 RW ,65.0,3,3050.0,46.92307692307693,52.357744,4.9076889999999995
664,Overschiestraat 170 B10*                       , 1062 XK ,77.0,3,2600.0,33.76623376623377,52.348849,4.839201
665,Singel                       , 1012 VG ,48.0,2,2150.0,44.79166666666666,52.375858,4.891292
666,Jan Smitstraat                       , 1069 SZ ,95.0,3,3000.0,31.578947368421048,52.351232,4.800521
667,Benedenlangs 17                       , 1025 KB ,55.0,2,1950.0,35.45454545454545,52.396271999999996,4.931381
668,Prinsengracht 657 1                       , 1016 HV ,45.0,2,2300.0,51.111111111111114,52.367072,4.882803
669,Groenburgwal                       , 1011 HW ,80.0,3,3650.0,45.625,52.368714000000004,4.897962000000001
670,Van Nijenrodeweg                       , 1082 HV ,87.0,3,3500.0,40.22988505747128,52.327461,4.858417
671,Overschiestraat 170 C6*                       , 1062 XK ,74.0,3,1800.0,24.324324324324326,52.348849,4.839201
673,Singel                       , 1012 WJ ,82.0,4,4000.0,48.780487804878035,52.375858,4.891292
674,Rustenburgerstraat                       , 1073 GJ ,53.0,3,3000.0,56.60377358490565,52.35135,4.890665
676,Jan Vrijmanstraat 345                       , 1087 NB ,109.0,3,3000.0,27.522935779816518,52.346241,5009875.0
677,Vondelstraat 122 C                       , 1054 GS ,70.0,2,3500.0,50.0,52.361242,4.873078
678,Brouwersgracht 248 A                       , 1013 HE ,78.0,2,4000.0,51.282051282051285,52.382417,4.885611
680,Koggestraat 8 B                       , 1012 TA ,68.0,2,2800.0,41.1764705882353,52.377561,4.893508
681,Daniël Stalpertstraat                       , 1072 XL ,67.0,3,3500.0,52.23880597014925,52.35634,4.887791
682,Orteliusstraat 349 I                       , 1056 PC ,55.0,2,2500.0,45.45454545454545,52.374238,4.846817
683,Joos Banckersplantsoen 85                       , 1056 LD ,130.0,3,4500.0,34.615384615384606,52.376381,4.855514
684,Westerkade                       , 1015 XE ,87.0,3,3000.0,34.48275862068966,52.375877,4.87786
685,Paramaribostraat 57 2                       , 1058 VG ,108.0,4,3500.0,32.407407407407405,52.360826,4.854189
686,Wamelplein                       , 1106 DP ,60.0,2,2500.0,41.66666666666666,52.299537,4.987297
690,Graafschapstraat                       , 1079 PE ,55.0,2,1950.0,35.45454545454545,52.339456,4.894278
693,De Lairessestraat                       , 1071 PB ,100.0,3,3650.0,36.5,52.353958,4.873075
694,Henri Zagwijnstraat 2 1                       , 1077 XP ,72.0,3,2200.0,30.555555555555557,52.342394,4.868703
695,Boeninlaan                       , 1102 TK ,56.0,2,2500.0,44.64285714285715,52.3216,4.941808
696,Nassaukade 302 1                       , 1053 LN ,45.0,2,2350.0,52.22222222222222,52.374679,4.81803
697,Kolfschotenstraat 324                       , 1104 PG ,50.0,2,2500.0,50.0,52.315496,4.9668209999999995
698,Omval 259 PP                       , 1096 HR ,80.0,3,3150.0,39.375,52.344263,4.915993
699,Kloveniersburgwal 77 C                       , 1011 KA ,125.0,3,3650.0,29.2,52.369562,4.8978839999999995
700,Fritz Conijnstraat                       , 1063 CC ,58.0,3,2800.0,48.27586206896552,52.384367,4.836106
702,Koningineg 188 bv                       , 1075 EJ ,180.0,6,4700.0,26.11111111111111,52.307398,4.946739
706,Staringplein                       , 1054 VK ,60.0,3,4000.0,66.66666666666667,52.360417,4.86301
708,Brouwersgracht 248 A                       , 1013 HE ,78.0,2,4000.0,51.282051282051285,52.382417,4.885611
709,Brouwersgracht 248 C                       , 1013 HE ,78.0,2,3000.0,38.46153846153846,52.382417,4.885611
710,Van Hogendorpstraat 155 1                       , 1051 BN ,60.0,2,2000.0,33.333333333333336,52.382940000000005,4.873399
711,Van Ostadestraat 238 3                       , 1073 TV ,90.0,3,3050.0,33.888888888888886,52.352805,4.896865
712,Carnapstraat                       , 1062 KT ,92.0,3,3500.0,38.04347826086956,52.354139,4.8392919999999995
714,Koggestraat                       , 1012 TA ,92.0,3,5000.0,54.34782608695652,52.377485,4.893503
715,Singel                       , 1016 AK ,85.0,2,4200.0,49.411764705882355,52.375858,4.891292
716,Govert Flinckstraat                       , 1074 CA ,55.0,2,3000.0,54.54545454545455,52.355581,4.895827
717,Fokke Simonszstraat 65 B2                       , 1017 TE ,40.0,2,2150.0,53.75,52.360258,4.895212
718,Gerard Douplein 19 H                       , 1073 XE ,105.0,4,3500.0,33.333333333333336,52.356146,4.893219
719,Maassluisstraat                       , 1062 GS ,40.0,1,2500.0,62.5,52.349216,4.836661
720,Eva Besnyöstraat                       , 1087 KR ,90.0,3,3000.0,33.333333333333336,52.349084000000005,5009566.0
721,Van Gentstraat                       , 1055 PC ,70.0,3,3000.0,42.857142857142854,52.383796000000004,4.851579
722,Govert Flinckstraat                       , 1074 CA ,55.0,2,3000.0,54.54545454545455,52.355581,4.895827
723,Spijkerkade                       , 1021 JS ,30.0,1,1950.0,65.0,52.38487,4.921021
724,Spuistraat                       , 1012 SP ,45.0,2,2850.0,63.33333333333334,52.37056,4.889144
725,Spijkerkade                       , 1021 JS ,30.0,1,1950.0,65.0,52.38487,4.921021
726,Weteringschans 41 A                       , 1017 RW ,120.0,3,4500.0,37.5,52.361969,4.885255
727,Kuiperssteeg                       , 1012 HR ,75.0,2,2500.0,33.333333333333336,52.369903,4.893814
728,Nijenburg 8                       , 1081 GG ,56.0,2,3500.0,62.5,52.32845,4.865785
730,Valschermkade                       , 1059 CD ,18.0,1,2000.0,111.11111111111113,52.342239,4.845758999999999
731,Bloemgracht 110 B                       , 1015 TN ,103.0,4,4000.0,38.83495145631068,52.374663,4.879868
732,Waverstraat                       , 1079 VL ,55.0,2,3000.0,54.54545454545455,52.346014000000004,4.908976
733,Erich Salomonstraat                       , 1087 GT ,90.0,3,2500.0,27.777777777777786,52.357277,4.996446
734,Van der Hoopstraat                       , 1051 VE ,50.0,2,3500.0,70.0,52.384355,4.8741900000000005
739,Brouwersgracht 248 C                       , 1013 HE ,78.0,2,3000.0,38.46153846153846,52.382417,4.885611
740,Brouwersgracht 248 F                       , 1013 HE ,62.0,2,2500.0,40.32258064516129,52.382417,4.885611
741,Loosduinenstraat 100                       , 1062 EG ,100.0,3,3150.0,31.5,52.351196,4.838119
742,Leidsegracht 82 F                       , 1016 CR ,105.0,3,6200.0,59.04761904761904,52.366025,4.881715
743,Fregelaan 15                       , 1062 KK ,93.0,3,2000.0,21.505376344086017,52.352849,4.837258
744,Hogewerf 133                       , 1082 NC ,81.0,3,2000.0,24.691358024691358,52.333683,4.880718
745,Samosstraat 30                       , 1060 TA ,14.0,1,710.0,50.714285714285715,52.345653999999996,4.791809
746,Rinus Michelslaan 221                       , 1061 MB ,67.0,3,2150.0,32.089552238805965,52.373158000000004,4.838783
747,Bloemstraat                       , 1016 LJ ,86.0,3,4750.0,55.23255813953488,52.373799,4.879824
748,De Lairessestraat                       , 1071 PL ,92.0,3,4000.0,43.47826086956522,52.352568,4.867877
749,Van Spilbergenstraat                       , 1057 RK ,70.0,3,3000.0,42.857142857142854,52.367038,4.851559
750,John Franklinstraat                       , 1056 SX ,54.0,2,2000.0,37.03703703703704,52.372333000000005,4.853828
751,Prins Hendrikkade                       , 1011 TB ,140.0,5,7000.0,50.0,52.378884,4.895995
752,Van Breestraat                       , 1071 ZG ,70.0,3,5000.0,71.42857142857143,52.356006,4.873316
753,Elisabeth Wolffstraat                       , 1053 TR ,107.0,5,3000.0,28.03738317757009,52.369781,4.867401
754,Beethovenstraat 151 1                       , 1077 JD ,73.0,3,3500.0,47.94520547945206,52.342746999999996,4.8776209999999995
755,Overtoom 403 II                       , 1054 JP ,63.0,3,3150.0,50.0,52.359224,4.861768
756,Rosmarijnsteeg 15                       , 1012 RP ,60.0,2,2500.0,41.66666666666666,52.370308,4.88933
757,Veerstraat 8 H                       , 1075 ST ,95.0,3,4500.0,47.368421052631575,52.40802,4.933818
758,Kinderdijkstraat 76 II                       , 1079 GN ,55.0,3,2500.0,45.45454545454545,52.341891,4.902768
759,Vlakkerweg 97                       , 1033 DZ ,75.0,3,2150.0,28.66666666666667,52.404720000000005,4.899553
760,Tweede Hugo de Grootstraat 28 A                       , 1052 LD ,60.0,3,2500.0,41.66666666666666,52.374596000000004,4.873628
761,Van Breestraat                       , 1071 ZP ,200.0,7,9000.0,45.0,52.356006,4.873316
762,Stephensonstraat 20 C                       , 1097 BB ,127.0,3,3150.0,24.80314960629921,52.350336999999996,4.919641
763,Gaasterlandstraat 158                       , 1079 RH ,64.0,2,3000.0,46.875,52.337914000000005,4.895529
764,Fregelaan 121                       , 1062 KM ,100.0,3,2450.0,24.5,52.35282,4.838844
765,Gaasterlandstraat 174                       , 1079 RH ,89.0,3,2800.0,31.460674157303373,52.337834,4.89551
766,Eemlandstraat 13                       , 1079 RM ,60.0,2,2000.0,33.333333333333336,52.338083000000005,4.895741
768,Gustav Mahlerlaan 679                       , 1082 MK ,93.0,3,3500.0,37.63440860215053,52.336121,4.8709370000000005
769,Gerard Doustraat                       , 1072 VL ,46.0,2,4000.0,86.95652173913044,52.355304,4.889822000000001
770,Brouwersgracht 248 K                       , 1013 HE ,60.0,2,2150.0,35.833333333333336,52.382417,4.885611
771,Brouwersgracht 248 A                       , 1013 HE ,78.0,2,4000.0,51.282051282051285,52.382417,4.885611
772,Pieter Lastmankade                       , 1075 KJ ,62.0,3,3150.0,50.806451612903224,52.347521,4.856877
773,Hoofddorpplein 10 II                       , 1058 PD ,55.0,2,2150.0,39.09090909090909,52.3514,4.850618
774,Kerkstraat                       , 1017 JA ,65.0,3,4500.0,69.23076923076923,52.362922999999995,4.898906
775,Gerrit van der Veenstraat                       , 1077 DN ,68.0,3,4450.0,65.44117647058823,52.348818,4.877203
776,Eerste Jan van der Heijdenstraat 34 B                       , 1072 TV ,70.0,3,4500.0,64.28571428571429,52.352875,4.8879410000000005
778,Laurierstraat 75 F                       , 1016 PJ ,32.0,2,2000.0,62.5,52.371932,4.880223
779,Wedderborg 5                       , 1082 SV ,70.0,2,3500.0,50.0,52.334237,4.873816000000001
780,Nieuwe Leliestraat 153 1                       , 1015 HC ,40.0,2,2500.0,62.5,52.374721,4.87859
781,Willem de Zwijgerlaan 353 2                       , 1055 RB ,50.0,2,2000.0,40.0,52.382257,4.857044999999999
782,Amstelveenseweg 71 3                       , 1075 VV ,70.0,4,4450.0,63.57142857142857,52.353581,4.856037000000001
783,Tugelaweg 71 1                       , 1091 VM ,54.0,3,2500.0,46.2962962962963,52.355142,4.919181
784,Laurierstraat 75 G                       , 1016 PJ ,28.0,2,2000.0,71.42857142857143,52.371932,4.880223
785,Van Nijenrodeweg 546                       , 1082 HS ,90.0,3,2800.0,31.11111111111111,52.327515000000005,4.873996
786,Eerste Jacob van Campenstraat                       , 1072 BH ,60.0,2,3000.0,50.0,52.357483,4.888775
787,Djambistraat 44 1                       , 1094 BB ,55.0,3,3000.0,54.54545454545455,52.364723,4.9378720000000005
788,Lindengracht                       , 1015 KN ,60.0,3,3500.0,58.33333333333334,52.380583,4.886718
789,Loenermark                       , 1025 SB ,80.0,4,2500.0,31.25,52.399525,4.932976
790,Spuistraat 3 F15                       , 1012 SP ,60.0,2,2000.0,33.333333333333336,52.369254,4.888593
791,Prinsengracht                       , 1017 KH ,45.0,2,3000.0,66.66666666666667,52.362122,4.898975
792,Singel                       , 1012 WL ,70.0,2,3000.0,42.857142857142854,52.375858,4.891292
793,Willem de Zwijgerlaan 108 H                       , 1056 JV ,50.0,2,2000.0,40.0,52.373540999999996,4.863713
794,Paardekraalstraat 2 4                       , 1092 JB ,68.0,3,3000.0,44.11764705882353,52.355261999999996,4.924596
795,Sumatrastraat 60 4                       , 1094 NG ,53.0,2,3500.0,66.0377358490566,52.362864,4.935658999999999
796,Fokke Simonszstraat                       , 1017 TE ,72.0,2,3650.0,50.694444444444436,52.360304,4.893629
797,Westerdok 198                       , 1013 BH ,90.0,3,2800.0,31.11111111111111,52.383511999999996,4.891532
798,Brouwersgracht 248 B                       , 1013 HE ,62.0,2,2800.0,45.161290322580655,52.382417,4.885611
799,Kromme-Mijdrechtstraat                       , 1079 KR ,60.0,2,3500.0,58.33333333333334,52.347187,4.908138
800,Haardstee 95                       , 1102 NE ,65.0,2,1950.0,30.0,52.311192,4.952168
801,Huidekoperstraat 25 A                       , 1017 ZL ,72.0,3,3150.0,43.75,52.358804,4.898062
802,Rozengracht 216 1                       , 1016 NL ,40.0,2,2350.0,58.75,52.372609999999995,4.876837
803,Fokke Simonszstraat                       , 1017 TE ,82.0,2,4500.0,54.878048780487795,52.360304,4.893629
804,Funenpark 320                       , 1018 AK ,75.0,2,2800.0,37.333333333333336,52.36905,4.931837000000001
805,Nieuwe Uilenburgerstraat 108                       , 1011 LX ,115.0,2,4450.0,38.69565217391305,52.370108,4.903766
806,Van Leijenberghlaan 113 A                       , 1082 GD ,116.0,4,4300.0,37.06896551724138,52.327576,4.879746
808,Olympiaweg 72 1                       , 1076 XD ,48.0,2,3000.0,62.5,52.347438000000004,4.860969
811,Nieuwe Herengracht                       , 1011 SG ,76.0,3,3500.0,46.05263157894736,52.365992999999996,4.903332
814,Lederambachtstraat                       , 1069 HK ,80.0,4,4450.0,55.625,52.356395,4.795185
815,Bolestein 546                       , 1081 EJ ,88.0,3,2800.0,31.818181818181817,52.324934000000006,4.859314
817,Seranggracht                       , 1019 PM ,90.0,3,2200.0,24.44444444444445,52.377829,4.932932
818,Ruysdaelkade 113 a                       , 1072 AN ,55.0,2,2800.0,50.90909090909091,52.354939,4.887183
819,Fagelstraat 71 B                       , 1052 EZ ,66.0,3,2500.0,37.87878787878788,52.380101,4.875811
820,Oeverpad 431                       , 1068 PM ,106.0,3,3000.0,28.301886792452827,52.364502,4.808279
821,Sumatrakade 1499                       , 1019 RS ,110.0,4,3050.0,27.72727272727273,52.379533,4.923388
822,Keizersgracht 141 B                       , 1015 CK ,115.0,4,2950.0,25.65217391304348,52.375863,4.88685
823,Brouwersgracht 6 I                       , 1013 GW ,45.0,2,2500.0,55.55555555555557,52.379719,4.889313
824,Tielstraat 56                       , 1107 RA ,70.0,3,2300.0,32.857142857142854,52.291947,4.968978
825,Foeliedwarsstraat 62 1                       , 1011 TP ,87.0,3,3000.0,34.48275862068966,52.37055,4.910927
827,Brouwersgracht 248 C                       , 1013 HE ,78.0,2,3000.0,38.46153846153846,52.382417,4.885611
828,Michelangelostraat 81 I                       , 1077 BX ,60.0,2,2000.0,33.333333333333336,52.345723,4.871555
830,Van Walbeeckstraat                       , 1058 CM ,57.0,3,2300.0,40.35087719298246,52.361478000000005,4.851012
831,Frans Halsstraat                       , 1072 BS ,50.0,3,3000.0,60.0,52.356556,4.888733
833,Rijnstraat                       , 1078 RD ,57.0,3,2800.0,49.122807017543856,52.348776,4.9042010000000005
834,Veerstraat                       , 1075 SZ ,50.0,2,2500.0,50.0,52.35139,4.853946
835,Martelaarsgracht                       , 1012 TR ,70.0,3,3500.0,50.0,52.377883000000004,4.896631
836,Welnastraat                       , 1096 GJ ,28.0,1,2500.0,89.2857142857143,52.339568,4.919455
837,Gerrit van der Veenstraat 161 H                       , 1077 EA ,162.0,6,8000.0,49.382716049382715,52.348569,4.868924
838,Gerrit van der Veenstraat 127 B                       , 1077 DW ,174.0,5,7600.0,43.678160919540225,52.34867,4.871315
839,Ferdinand Bolstraat                       , 1072 LB ,66.0,3,5500.0,83.33333333333333,52.350566,4.891676
840,Jacob van Lennepkade 44 3                       , 1053 ML ,90.0,2,3050.0,33.888888888888886,52.366028,4.874035
841,Tweede Jan Steenstraat 75 F                       , 1074 CL ,27.0,1,2350.0,87.03703703703705,52.402014,4.935554
842,Derde Schinkelstraat                       , 1075 TM ,80.0,3,2500.0,31.25,52.352868,4.854601000000001
843,Kribbestraat 48 2                       , 1079 WV ,55.0,3,3200.0,58.18181818181818,52.341104,4.903613
844,Eef Kamerbeekstraat 674                       , 1095 MP ,48.0,1,2000.0,41.66666666666666,52.371136,4.967658999999999
845,Eef Kamerbeekstraat 654                       , 1095 MP ,70.0,2,2600.0,37.142857142857146,52.371261,4.967935
847,Geuzenstraat                       , 1056 JZ ,62.0,3,2500.0,40.32258064516129,52.372279,4.864637999999999
848,Michelangelostraat 116                       , 1077 CH ,120.0,3,5700.0,47.5,52.344975,4.87127
849,Dever 16                       , 1082 BJ ,65.0,3,2150.0,33.07692307692308,52.324899,4.869744
850,Willem de Zwijgerlaan 207 2                       , 1056 JP ,64.0,3,2150.0,33.59375,52.376907,4.86266
852,Nassaukade                       , 1052 CK ,52.0,2,3900.0,75.0,52.379571999999996,4.878407
853,Joan Muyskenweg 6 B8                       , 1096 CJ ,73.0,3,2500.0,34.246575342465746,52.336259000000005,4.913532
854,Keizersgracht 210 II                       , 1016 DX ,80.0,2,2800.0,35.0,52.373542,4.884580000000001
855,Prinsengracht 193 D                       , 1015 DS ,140.0,3,5500.0,39.285714285714285,52.377561,4.886183
856,Brouwersgracht 248 F                       , 1013 HE ,62.0,2,2500.0,40.32258064516129,52.382417,4.885611
857,Brouwersgracht 248 C                       , 1013 HE ,78.0,2,3000.0,38.46153846153846,52.382417,4.885611
858,Mary van der Sluisstraat 106                       , 1095 ME ,65.0,2,2500.0,38.46153846153846,52.372572999999996,4.96357
860,Van Nijenrodeweg                       , 1083 EJ ,30.0,1,2500.0,83.33333333333333,52.327461,4.858417
861,Warmoesstraat 46 A                       , 1012 JE ,91.0,3,2950.0,32.41758241758241,52.375554,4.898314
862,Bloemstraat 36 D                       , 1016 LC ,45.0,2,2500.0,55.55555555555557,52.374375,4.881794999999999
863,Van Boshuizenstraat 167                       , 1083 AV ,80.0,3,2150.0,26.875,52.407387,4.912163
864,Anton Verheijstraat 7 3                       , 1077 KT ,110.0,4,4450.0,40.45454545454545,52.343431,4.875632
866,Kinderdijkstraat 36 1                       , 1079 GK ,56.0,3,3000.0,53.57142857142857,52.343131,4.902813
868,Rokin 128 D                       , 1012 LC ,40.0,2,2350.0,58.75,52.368415,4.892082
869,Kinkerstraat                       , 1053 EL ,44.0,2,3000.0,68.18181818181819,52.367585999999996,4.873204
871,Amstelvlietstraat 540                       , 1096 GG ,80.0,3,2400.0,30.0,52.33893,4.919182
872,Van Spilbergenstraat                       , 1057 PV ,45.0,3,2700.0,60.0,52.367038,4.851559
873,ms. van Riemsdijkweg                       , 1033 RD ,75.0,3,2500.0,33.333333333333336,52.400438,4.8920330000000005
874,Oudezijds Voorburgwal                       , 1012 EM ,80.0,3,4000.0,50.0,52.372452,4.896855
875,Beethovenstraat 138 3                       , 1077 JS ,210.0,6,4650.0,22.142857142857146,52.345789,4.876412
877,Willem de Zwijgerlaan                       , 1056 JT ,50.0,2,1700.0,34.0,52.371165999999995,4.863198000000001
878,Cabotstraat 17 1                       , 1057 VP ,48.0,3,2350.0,48.95833333333334,52.368158,4.855773999999999
880,Wijdesteeg 64 *                       , 1012 RN ,50.0,2,2150.0,43.0,52.371757,4.890098
881,Tugelaweg 32 A                       , 1092 VE ,70.0,1,3000.0,42.857142857142854,52.356497,4.92353
882,Saenredamstraat                       , 1072 CH ,35.0,2,2150.0,61.42857142857143,52.355726000000004,4.888708
883,Eef Kamerbeekstraat 88                       , 1095 MP ,45.0,1,2350.0,52.22222222222222,52.373422999999995,4.963585
884,Hageland 120                       , 1066 SB ,77.0,3,3500.0,45.45454545454545,52.345278,4.812051
885,Noorderstraat                       , 1017 TW ,70.0,3,3150.0,45.0,52.361218,4.89377
886,Geldersekade 27 C                       , 1011 EJ ,48.0,2,2000.0,41.66666666666666,52.375440999999995,4.9024160000000006
887,Brouwersgracht 248 C                       , 1013 HE ,78.0,2,3000.0,38.46153846153846,52.382417,4.885611
888,Ceintuurbaan                       , 1074 EB ,60.0,2,2800.0,46.66666666666666,52.354812,4.9010370000000005
889,Joan Melchior Kemperstraat                       , 1051 TS ,39.0,2,2350.0,60.256410256410255,52.385021,4.874594
890,Van Walbeeckstraat 70 ll                       , 1058 CW ,58.0,4,2500.0,43.10344827586207,52.362035,4.851223
891,Prinsengracht 415 E                       , 1016 HM ,125.0,4,6200.0,49.6,52.371055,4.8831690000000005
892,Haarlemmermeerstraat 130 II                       , 1058 KH ,56.0,2,2150.0,38.392857142857146,52.352934999999995,4.850159
893,Saskia van Uijlenburgkade 134                       , 1058 GA ,98.0,3,3500.0,35.714285714285715,52.356496,4.846593
894,Loenermark                       , 1025 TB ,90.0,4,3000.0,33.333333333333336,52.399525,4.932976
895,Van Spilbergenstraat 88 H                       , 1057 RL ,65.0,2,3000.0,46.153846153846146,52.366748,4.851857
896,Zeeburgerstraat                       , 1018 AG ,100.0,3,4500.0,45.0,52.366462,4.925985
897,Herengracht                       , 1016 BE ,50.0,2,2500.0,50.0,52.365048,4.898317
898,Omval                       , 1096 AA ,80.0,3,3500.0,43.75,52.342847,4.919715
901,Sint Willibrordusstraat 20 II                       , 1074 XL ,55.0,2,3000.0,54.54545454545455,52.354662,4.90257
902,Nicolaas Witsenstraat 18 1                       , 1017 ZH ,50.0,2,2500.0,50.0,52.358527,4.896083
903,B. Merkelbachsingel                       , 1022 KE ,70.0,3,2150.0,30.714285714285715,52.405327,4.931657
905,Jacques Veltmanstraat                       , 1065 DB ,85.0,3,2500.0,29.411764705882355,52.351504999999996,4.8309940000000005
906,Lauriergracht                       , 1016 RP ,70.0,2,3650.0,52.14285714285714,52.371294,4.879935
907,Cas Oorthuyskade 374                       , 1087 DP ,98.0,3,3350.0,34.18367346938776,52.361140999999996,4.991874
908,Pieter Cornelisz. Hooftstraat 151 1                       , 1071 BT ,60.0,2,4450.0,74.16666666666667,52.359138,4.876933999999999
909,Javastraat 104 1                       , 1094 HN ,50.0,3,3000.0,60.0,52.363613,4.9366650000000005
910,Ookmeerweg 7 C                       , 1068 ZX ,124.0,4,2150.0,17.338709677419356,52.365608,4.8028319999999995
911,Kuipersstraat                       , 1073 ER ,55.0,3,2500.0,45.45454545454545,52.353543,4.902691
912,Frans van Mierisstraat 69 II                       , 1071 RL ,187.0,5,8000.0,42.78074866310161,52.354296000000005,4.881789
913,Pieter Cornelisz. Hooftstraat                       , 1071 BN ,100.0,3,2950.0,29.5,52.360453,4.8818220000000005
914,Bert Haanstrakade 122                       , 1087 DN ,119.0,3,2300.0,19.32773109243697,52.360517,4.993258999999999
916,Korte Leidsedwarsstraat                       , 1017 PV ,50.0,2,2300.0,46.0,52.363282,4.884683
917,Beethovenstraat                       , 1077 JS ,140.0,4,4500.0,32.142857142857146,52.343825,4.877039
920,Beethovenstraat                       , 1077 JS ,210.0,7,4650.0,22.142857142857146,52.343825,4.877039
921,Kolfschotenstraat                       , 1104 PC ,75.0,3,2150.0,28.66666666666667,52.316973,4.970868
922,Ten Katestraat                       , 1053 CE ,48.0,2,3000.0,62.5,52.366014,4.86771
923,Crynssenstraat                       , 1058 XZ ,58.0,2,2000.0,34.48275862068966,52.362511,4.856253
924,Balistraat                       , 1094 JP ,40.0,2,2500.0,62.5,52.363149,4.935579
925,Uiterwaardenstraat                       , 1079 BS ,51.0,3,3000.0,58.82352941176471,52.342802,4.903116000000001
926,Balistraat 48 H                       , 1094 JN ,49.0,2,2500.0,51.02040816326532,52.363009000000005,4.933793
928,Diezestraat 26 2                       , 1078 JR ,125.0,4,4750.0,38.0,52.345396,4.891738
929,Hebridenlaan 27 C                       , 1060 LS ,83.0,4,4000.0,48.19277108433735,52.347621999999994,4.7935
930,Hebridenlaan 27 A                       , 1060 LS ,66.0,2,1700.0,25.75757575757576,52.347621999999994,4.7935
931,Hebridenlaan 27 B                       , 1060 LS ,53.0,3,2900.0,54.716981132075475,52.347621999999994,4.7935
932,Solitudopad                       , 1096 DR ,40.0,2,2150.0,53.75,52.34126,4.923218
934,Joh.M. Coenenstraat                       , 1071 WH ,100.0,3,3500.0,35.0,52.351411999999996,4.879837
935,Overtoom                       , 1054 HX ,100.0,3,4750.0,47.5,52.361024,4.868881
936,Van Reigersbergenstraat                       , 1052 SX ,70.0,4,3150.0,45.0,52.372566,4.869574
938,Tweede Constantijn Huygensstraat                       , 1054 CR ,75.0,2,2500.0,33.333333333333336,52.363382,4.873156
940,Eerste Weteringdwarsstraat 65 E                       , 1017 TM ,70.0,3,4000.0,57.14285714285714,52.361878999999995,4.889557
941,Singel                       , 1015 AC ,32.0,1,2500.0,78.125,52.375858,4.891292
942,Eerste Tuindwarsstraat 8 I                       , 1015 RV ,45.0,3,2600.0,57.77777777777778,52.3776,4.8836379999999995
944,Marnixstraat                       , 1016 XV ,82.0,3,3500.0,42.68292682926829,52.365369,4.880152
945,Overtoom                       , 1054 HV ,74.0,2,4450.0,60.135135135135144,52.361024,4.868881
946,Brouwersgracht 248 B                       , 1013 HE ,62.0,2,2800.0,45.161290322580655,52.382417,4.885611
948,Admiraal De Ruijterweg 77 I                       , 1057 JZ ,50.0,3,2800.0,56.0,52.371324,4.860126999999999
949,Lange Leidsedwarsstraat 160 1                       , 1017 NP ,45.0,2,2350.0,52.22222222222222,52.363085,4.88577
950,Ceintuurbaan 196 ³                       , 1072 GC ,75.0,3,2600.0,34.666666666666664,52.352118,4.887318
951,Wittgensteinlaan 164                       , 1062 KD ,96.0,3,2400.0,25.0,52.352975,4.835451
952,Rustenburgerstraat                       , 1072 HD ,119.0,4,5000.0,42.01680672268908,52.35135,4.890665
953,Kuipersstraat 149 A7                       , 1073 ER ,50.0,3,2500.0,50.0,52.352971000000004,4.900107
954,Geuzenstraat                       , 1056 KC ,63.0,3,2500.0,39.68253968253968,52.372279,4.864637999999999
955,Jasonstraat 31 4                       , 1076 KX ,58.0,3,3000.0,51.72413793103448,52.343858000000004,4.860409
956,De Wittenstraat                       , 1052 AT ,45.0,2,2500.0,55.55555555555557,52.383154,4.878522
957,Gustav Mahlerlaan 931                       , 1082 MK ,110.0,3,4000.0,36.36363636363637,52.336452,4.86994
958,Daniël Stalpertstraat                       , 1072 XB ,80.0,3,3500.0,43.75,52.35634,4.887791
959,Valkenburgerstraat                       , 1011 MH ,82.0,3,4300.0,52.4390243902439,52.369578000000004,4.906694
961,Pieter Cornelisz. Hooftstraat                       , 1071 BT ,50.0,2,3500.0,70.0,52.360053,4.879957
962,Kea Boumanstraat                       , 1095 MA ,35.0,1,2350.0,67.14285714285714,52.37441,4.96831
963,Ruysdaelkade 7                       , 1072 AG ,80.0,2,1700.0,21.25,52.359147,4.887532
964,IJburglaan                       , 1086 XT ,100.0,3,3000.0,30.0,52.368507,4.971287
965,Erich Salomonstraat                       , 1087 GT ,81.0,3,3000.0,37.03703703703704,52.357277,4.996446
966,Maarten Harpertszoon Trompstraat 36 3                       , 1056 JB ,116.0,3,3650.0,31.46551724137931,52.371998,4.86216
968,Baden Powellweg                       , 1069 LH ,31.0,1,2000.0,64.51612903225806,52.348469,4.795243
969,Van Ostadestraat                       , 1073 TZ ,54.0,3,3500.0,64.81481481481481,52.353859,4.902028
970,Rozenstraat 183 2                       , 1016 NR ,75.0,3,5000.0,66.66666666666667,52.371969,4.878196
971,Raamstraat 27 1                       , 1016 XL ,60.0,3,3000.0,50.0,52.366112,4.881096
973,Valschermkade                       , 1059 CD ,18.0,1,2000.0,111.11111111111113,52.342239,4.845758999999999
974,Vrouwenmantelstraat                       , 1032 LT ,100.0,5,4500.0,45.0,52.398714,4.9051800000000005
976,Eerste Atjehstraat 43 3                       , 1094 KB ,75.0,2,3000.0,40.0,52.362658,4.933665
977,Ceintuurbaan                       , 1074 EB ,60.0,2,2800.0,46.66666666666666,52.354812,4.9010370000000005
978,Brouwersgracht 248 A                       , 1013 HE ,78.0,2,4000.0,51.282051282051285,52.382417,4.885611
979,Oudezijds Voorburgwal 183 I V                       , 1012 EW ,100.0,3,3500.0,35.0,52.371639,4.895982
980,Van Baerlestraat                       , 1071 AZ ,20.0,2,2300.0,115.0,52.358779,4.878127
981,Rinus Michelslaan                       , 1061 MB ,82.0,3,2500.0,30.48780487804878,52.373158000000004,4.838783
982,Gerard Doustraat 30 2                       , 1072 VR ,28.0,1,1950.0,69.64285714285714,52.355106,4.888268
983,Amstelboulevard 8                       , 1096 HH ,150.0,3,4500.0,30.0,52.343569,4.915355
984,Hoofdweg 232 II                       , 1057 DG ,54.0,3,3500.0,64.81481481481481,52.367156,4.852821
985,Martelaarsgracht 9 3                       , 1012 TN ,61.0,3,4000.0,65.57377049180327,52.377762,4.896516
986,Grubbehoeve 28                       , 1103 GH ,77.0,3,2000.0,25.97402597402597,52.321482,4.976987
987,Leidsestraat                       , 1017 NX ,62.0,3,3000.0,48.38709677419354,52.366381,4.887344000000001
988,Van der Hoopstraat 130 IV                       , 1051 VN ,50.0,2,2150.0,43.0,52.384194,4.870403
989,Valeriusstraat 177 2                       , 1075 EW ,60.0,2,4450.0,74.16666666666667,52.352026,4.861172
990,Egelantiersstraat                       , 1015 PZ ,45.0,3,2800.0,62.22222222222222,52.376514,4.881611
992,Solebaystraat                       , 1055 ZS ,48.0,3,2500.0,52.08333333333334,52.384963,4.856075
993,Filips van Almondestraat 29 1                       , 1057 ZS ,60.0,3,3000.0,50.0,52.369901,4.857545
994,Beulingstraat 4 E                       , 1017 BA ,75.0,3,5000.0,66.66666666666667,52.368054,4.88755
995,Reyer Anslostraat 9 H                       , 1054 KT ,110.0,4,3500.0,31.818181818181817,52.358508,4.860397
996,Derkinderenstraat                       , 1061 VX ,90.0,3,4000.0,44.444444444444436,52.368663,4.840343
997,Prinsengracht                       , 1016 HK ,60.0,3,3150.0,52.5,52.366089,4.882537999999999
999,Henrick de Keijserplein                       , 1073 SX ,140.0,5,7000.0,50.0,52.351531,4.89754
1000,Koningineg 201 2                       , 1075 CR ,75.0,3,3000.0,40.0,52.366428000000006,4.872987999999999
1001,Alblasstraat                       , 1079 ZK ,50.0,3,2500.0,50.0,52.341924,4.899328
1002,Wilhelminastraat 9 II                       , 1054 VT ,52.0,2,2500.0,48.07692307692307,52.361496,4.863297
1003,James Wattstraat                       , 1097 DL ,48.0,1,2700.0,56.25,52.35008,4.922676
1004,James Wattstraat                       , 1097 DL ,67.0,2,2350.0,35.07462686567164,52.35008,4.922676
1005,James Wattstraat                       , 1097 DL ,48.0,1,1650.0,34.375,52.35008,4.922676
1007,Kromme-Mijdrechtstraat                       , 1079 KR ,60.0,2,3500.0,58.33333333333334,52.347187,4.908138
1008,Waldenlaan 107                       , 1093 NH ,77.0,3,3500.0,45.45454545454545,52.357225,4.9292739999999995
1009,Haarlemmerstraat                       , 1013 EL ,65.0,3,2500.0,38.46153846153846,52.380313,4.8917839999999995
1010,Beulingstraat                       , 1017 BA ,35.0,2,2300.0,65.71428571428571,52.367978,4.88753
1011,Tussen Meer                       , 1068 GA ,72.0,4,2150.0,29.86111111111111,52.357574,4.79726
1012,Nieuwe Herengracht                       , 1011 RM ,50.0,2,2500.0,50.0,52.365992999999996,4.903332
1013,Pietersbergweg 207                       , 1105 BM ,39.0,1,2000.0,51.282051282051285,52.298977,4.9559940000000005
1014,Johan Huijsenstraat                       , 1087 LC ,81.0,3,3000.0,37.03703703703704,52.350884,5008374.0
1015,Bloemstraat                       , 1016 LD ,36.0,2,2150.0,59.72222222222222,52.373799,4.879824
1016,Spinakerhof                       , 1034 MS ,76.0,3,2800.0,36.8421052631579,52.409965,4.923213
1017,Admiraal De Ruijterweg 107 3                       , 1056 EV ,80.0,3,3500.0,43.75,52.372442,4.859057
1018,Van Leijenberghlaan                       , 1082 GM ,90.0,3,3050.0,33.888888888888886,52.335008,4.878591
1019,Minervaplein                       , 1077 TH ,70.0,2,5000.0,71.42857142857143,52.346421,4.872554
1020,Amsteldijk 41 I                       , 1074 HV ,77.0,3,4500.0,58.441558441558435,52.355059999999995,4.905501
1021,Van Eeghenstraat 43 1                       , 1071 EV ,74.0,3,2950.0,39.86486486486485,52.357796,4.87513
1022,Keizersgracht                       , 1017 EK ,130.0,3,3150.0,24.23076923076923,52.364035,4.892455
1023,Grubbehoeve 827                       , 1103 GZ ,70.0,3,2350.0,33.57142857142857,52.321719,4.977851
1024,Schinkelhavenstraat 21 3                       , 1075 VP ,100.0,4,5500.0,55.0,52.354346,4.854252
1025,Van Ostadestraat 52 1                       , 1072 TA ,46.0,2,2800.0,60.8695652173913,52.351628999999996,4.888542
1026,Mary van der Sluisstraat 274                       , 1095 ME ,95.0,3,3000.0,31.578947368421048,52.373896,4.963413
1027,Van Hogendorpstraat 869                       , 1051 CD ,85.0,3,3500.0,41.1764705882353,52.382111,4.868869999999999
1028,Jan Boterenbroodstraat                       , 1019 GC ,70.0,3,2800.0,40.0,52.368134999999995,4.943646
1029,Ceintuurbaan                       , 1072 EW ,65.0,2,2500.0,38.46153846153846,52.354812,4.9010370000000005
1030,Elisabeth Wolffstraat 74 I                       , 1053 TW ,51.0,3,3500.0,68.62745098039215,52.368984000000005,4.867643
1032,Bilderdijkkade 68 II                       , 1053 VN ,40.0,1,2700.0,67.5,52.366928,4.870252
1033,Kleiburg                       , 1104 EA ,68.0,3,2300.0,33.823529411764696,52.318351,4.980421
1034,Revaleiland                       , 1014 ZG ,81.0,3,2500.0,30.8641975308642,52.392854,4.878787
1037,Cabotstraat                       , 1057 VP ,66.0,3,3000.0,45.45454545454545,52.368142999999996,4.855085
1038,Brouwersgracht 248 K                       , 1013 HE ,60.0,2,2150.0,35.833333333333336,52.382417,4.885611
1039,Brouwersgracht 248 C                       , 1013 HE ,78.0,2,3000.0,38.46153846153846,52.382417,4.885611
1040,Jacob van Lennepstraat 37 1                       , 1053 HB ,67.0,2,3500.0,52.23880597014925,52.362636,4.859026
1042,Tuinstraat                       , 1015 PK ,40.0,2,2500.0,62.5,52.376982,4.881973
1043,Sarphatistraat                       , 1018 GB ,80.0,3,4500.0,56.25,52.360839,4.9067050000000005
1044,Hoogte Kadijk                       , 1018 BS ,97.0,3,2000.0,20.61855670103093,52.368227000000005,4.9185
1045,Maassluisstraat                       , 1062 GL ,40.0,2,2500.0,62.5,52.349216,4.836661
1047,Hoendiepstraat                       , 1079 LW ,32.0,2,2500.0,78.125,52.342346,4.910558999999999
1048,Jacob van Lennepkade                       , 1053 NM ,45.0,2,2000.0,44.444444444444436,52.366584,4.875938
1049,Duivendrechtsekade                       , 1096 AH ,25.0,1,750.0,30.0,52.338205,4.932423
1050,J.M. van der Meylaan                       , 1019 EN ,60.0,3,2000.0,33.333333333333336,52.368147,4.945816000000001
1051,Van Ostadestraat 240 3                       , 1073 TV ,80.0,3,4450.0,55.625,52.352823,4.896953
1052,Van Eeghenstraat 43 I                       , 1071 EV ,74.0,3,2950.0,39.86486486486485,52.357799,4.875128
1053,Tourniairestraat                       , 1065 KK ,29.0,1,650.0,22.41379310344828,52.355981,4.8240300000000005
1054,Tweede Helmersstraat 47 3                       , 1054 CD ,130.0,4,3500.0,26.92307692307693,52.364303,4.87636
1055,Ferdinand Bolstraat                       , 1072 LK ,67.0,3,3150.0,47.014925373134325,52.350566,4.891676
1056,Herengracht 123 A                       , 1015 BG ,110.0,2,2950.0,26.818181818181817,52.365048,4.898317
1057,Spuistraat                       , 1012 VW ,75.0,3,3000.0,40.0,52.37056,4.889144
1059,Haarlemmerstraat 3 B                       , 1013 EH ,52.0,2,4000.0,76.92307692307692,52.379816,4.8933800000000005
1060,Jacob van Lennepstraat 238 C                       , 1053 KB ,60.0,2,2500.0,41.66666666666666,52.364117,4.864573
1061,Plantage Doklaan                       , 1018 CN ,85.0,3,2500.0,29.411764705882355,52.367901,4.9136120000000005
1062,Patroclosstraat 28 2                       , 1076 NH ,75.0,3,4000.0,53.33333333333334,52.344639,4.8662849999999995
1063,Plantage Doklaan                       , 1018 CN ,50.0,3,2500.0,50.0,52.367901,4.9136120000000005
1064,Borgerstraat 256 I                       , 1053 RG ,48.0,2,2500.0,52.08333333333334,52.363775,4.8604519999999996
1065,Van Leijenberghlaan 391 I                       , 1082 GK ,80.0,3,3050.0,38.125,52.325662,4.8799150000000004
1066,Valkenburgerstraat 134 G                       , 1011 NA ,95.0,3,3000.0,31.578947368421048,52.369616,4.90635
1067,Brouwersgracht 248 A                       , 1013 HE ,78.0,2,4000.0,51.282051282051285,52.382417,4.885611
1068,Brouwersgracht 248 C                       , 1013 HE ,78.0,2,3000.0,38.46153846153846,52.382417,4.885611
1069,Prinsengracht                       , 1016 GX ,92.0,3,7000.0,76.08695652173913,52.362122,4.898975
1072,Wolbrantskerkweg                       , 1069 DA ,132.0,5,4200.0,31.818181818181817,52.356924,4.797553
1073,Van Nijenrodeweg 57                       , 1083 ED ,30.0,1,2750.0,91.66666666666669,52.327604,4.884323
1074,Crynssenstraat 61 2                       , 1058 XV ,70.0,3,3000.0,42.857142857142854,52.363440999999995,4.8559779999999995
1076,Nieuwendijk 59 E                       , 1012 MB ,85.0,2,2500.0,29.411764705882355,52.377448,4.8966080000000005
1077,Lomanstraat                       , 1075 PS ,70.0,3,3650.0,52.14285714285714,52.351284,4.859917
1078,Hildebrandstraat                       , 1053 WB ,70.0,3,2200.0,31.42857142857143,52.364429,4.865061
1079,Arent Janszoon Ernststraat                       , 1083 JN ,110.0,4,4500.0,40.90909090909091,52.331795,4.889087
1081,IJburglaan 732                       , 1087 CE ,120.0,3,4450.0,37.083333333333336,52.356326,4.992519000000001
1082,Overtoom 332 2                       , 1054 JE ,70.0,2,2500.0,35.714285714285715,52.36072,4.866624
1083,George Gershwinlaan 476                       , 1082 MT ,85.0,2,2150.0,25.294117647058826,52.336098,4.870399
1084,Loenermark 248                       , 1025 SX ,80.0,3,2000.0,25.0,52.398296,4.929289
1087,Ilperveldstraat                       , 1024 PG ,104.0,4,3000.0,28.84615384615385,52.395959000000005,4.945744
1088,Herengracht 311                       , 1016 AV ,62.0,2,2000.0,32.25806451612903,52.364436,4.802157
1090,Baarsstraat                       , 1075 RT ,60.0,3,3150.0,52.5,52.350538,4.854327
1091,Kerkstraat 9 2                       , 1017 GA ,60.0,3,2350.0,39.16666666666666,52.366198,4.88434
1093,Wiborgeiland                       , 1014 ZC ,134.0,4,6200.0,46.268656716417894,52.393456,4.87726
1094,Kattenlaan 6 B                       , 1054 KA ,55.0,3,3000.0,54.54545454545455,52.359685999999996,4.865591
1095,Brouwersgracht 248 B                       , 1013 HE ,62.0,2,2800.0,45.161290322580655,52.382417,4.885611
1097,Mary van der Sluisstraat 306                       , 1095 ME ,74.0,3,2800.0,37.83783783783785,52.374362,4.963535
1098,Hoofddorpweg 10 4                       , 1058 PB ,71.0,3,3500.0,49.29577464788731,52.351055,4.851273
1100,Groenhoven                       , 1103 NB ,97.0,1,2150.0,22.164948453608247,52.327431,4.976808999999999
1101,Jan van Duivenvoordestraat                       , 1067 XN ,59.0,3,2500.0,42.3728813559322,52.378549,4.802617
1102,Tussen Meer                       , 1068 EZ ,85.0,3,2150.0,25.294117647058826,52.357574,4.79726
1103,Openhartsteeg                       , 1017 BD ,42.0,2,2000.0,47.61904761904761,52.366554,4.8912580000000005
1104,Oostenburgervoorstraat 284                       , 1018 MR ,72.0,2,2500.0,34.72222222222222,52.369735999999996,4.925428
1105,Amstelveenseweg                       , 1075 XK ,70.0,3,4000.0,57.14285714285714,52.338421999999994,4.857263
1107,Amstelveenseweg                       , 1081 JM ,155.0,5,4650.0,30.0,52.338421999999994,4.857263
1108,Ferdinand Bolstraat                       , 1072 LC ,42.0,1,2800.0,66.66666666666667,52.351673,4.891393
